[{"id":"pe7020","name":"Coo","lat":50.3995,"lon":5.8875,"alt":475,"dirs":["S","SW","W","NW"],"dirsGood":["S","SW","W"],"tags":["thermals","soaring","flatland"],"country":"BE","link":"https://www.paraglidingearth.com/pgearth/index.php?site=7020"},{"id":"pe7253","name":"Les 7 Meuses","lat":50.3539,"lon":4.8622,"alt":247,"dirs":["SE","S","SW"],"dirsGood":["S"],"tags":["thermals","soaring","flatland"],"country":"BE","link":"https://www.paraglidingearth.com/pgearth/index.php?site=7253"},{"id":"pe7297","name":"Rochefort - Rond du Roi","lat":50.1497,"lon":5.2061,"alt":261,"dirs":["N","NE"],"dirsGood":["N"],"tags":["thermals","soaring","flatland"],"country":"BE","link":"https://www.paraglidingearth.com/pgearth/index.php?site=7297"},{"id":"pe10050","name":"Terril de Hornu","lat":50.4244,"lon":3.8186,"alt":100,"dirs":["SW","W","NW"],"dirsGood":["NW"],"tags":["thermals","soaring","flatland"],"country":"BE","link":"https://www.paraglidingearth.com/pgearth/index.php?site=10050"},{"id":"pe10691","name":"Prayon","lat":50.576,"lon":5.656,"alt":192,"dirs":["NE"],"dirsGood":["NE"],"tags":["thermals","flatland"],"country":"BE","link":"https://www.paraglidingearth.com/pgearth/index.php?site=10691"},{"id":"pe10692","name":"Olne","lat":50.5774,"lon":5.7587,"alt":228,"dirs":["S"],"dirsGood":["S"],"tags":["thermals","soaring","flatland"],"country":"BE","link":"https://www.paraglidingearth.com/pgearth/index.php?site=10692"},{"id":"pe10693","name":"La Roche - Corimont","lat":50.179,"lon":5.5687,"alt":334,"dirs":["N","NW"],"dirsGood":["NW"],"tags":["thermals","flatland"],"country":"BE","link":"https://www.paraglidingearth.com/pgearth/index.php?site=10693"},{"id":"pe10694","name":"Marcourt","lat":50.2157,"lon":5.5172,"alt":299,"dirs":["E"],"dirsGood":["E"],"tags":["flatland"],"country":"BE","link":"https://www.paraglidingearth.com/pgearth/index.php?site=10694"},{"id":"pe10695","name":"Maboge - Les Crestelles","lat":50.1743,"lon":5.6408,"alt":403,"dirs":["SW"],"dirsGood":["SW"],"tags":["thermals","flatland"],"country":"BE","link":"https://www.paraglidingearth.com/pgearth/index.php?site=10695"},{"id":"pe10696","name":"Winterslag","lat":50.9873,"lon":5.4773,"alt":149,"dirs":["N","NE","E","W","NW"],"dirsGood":["N","NE","W"],"tags":["thermals","soaring"],"country":"BE","link":"https://www.paraglidingearth.com/pgearth/index.php?site=10696"},{"id":"pe10697","name":"Terril du Levant","lat":50.4361,"lon":3.9023,"alt":115,"dirs":["SE","S"],"dirsGood":["SE"],"tags":["thermals","soaring"],"country":"BE","link":"https://www.paraglidingearth.com/pgearth/index.php?site=10697"},{"id":"pe10698","name":"Terril du Roton (Farciennes)","lat":50.4417,"lon":4.541,"alt":195,"dirs":["E","SE"],"dirsGood":["SE"],"tags":["thermals","soaring","winch"],"country":"BE","link":"https://www.paraglidingearth.com/pgearth/index.php?site=10698"},{"id":"pe10699","name":"Beauraing","lat":50.1131,"lon":5.0096,"alt":250,"dirs":["N","NE","NW"],"dirsGood":["N"],"tags":["thermals","soaring","flatland"],"country":"BE","link":"https://www.paraglidingearth.com/pgearth/index.php?site=10699"},{"id":"pe10700","name":"Avister","lat":50.5473,"lon":5.5715,"alt":189,"dirs":["W"],"dirsGood":["W"],"tags":["thermals","soaring"],"country":"BE","link":"https://www.paraglidingearth.com/pgearth/index.php?site=10700"},{"id":"pe12004","name":"Bredene","lat":51.2476,"lon":2.95415,"alt":6,"dirs":["N","NW"],"dirsGood":["NW"],"tags":["soaring"],"country":"BE","link":"https://www.paraglidingearth.com/pgearth/index.php?site=12004"},{"id":"pe12278","name":"Terril de Strépy-Bracquegnies","lat":50.4568,"lon":4.1334,"alt":133,"dirs":["N","SW"],"dirsGood":["SW"],"tags":["soaring"],"country":"BE","link":"https://www.paraglidingearth.com/pgearth/index.php?site=12278"},{"id":"pe12518","name":"Beauvechain","lat":50.7534,"lon":4.78363,"alt":107,"dirs":["N","E","S","W"],"dirsGood":["N","E","S","W"],"tags":["flatland","winch"],"country":"BE","link":"https://www.paraglidingearth.com/pgearth/index.php?site=12518"},{"id":"pe14086","name":"Boom - De Schorre","lat":51.0927,"lon":4.38535,"alt":12,"dirs":["SE","S","SW","W"],"dirsGood":["SE","S","SW"],"tags":["soaring"],"country":"BE","link":"https://www.paraglidingearth.com/pgearth/index.php?site=14086"},{"id":"pe14533","name":"Oostduinkerke","lat":51.1279,"lon":2.6515,"alt":8,"dirs":["N","W","NW"],"dirsGood":["NW"],"tags":["soaring"],"country":"BE","link":"https://www.paraglidingearth.com/pgearth/index.php?site=14533"},{"id":"pe14550","name":"Hamoir - Hai des Laies","lat":50.4169,"lon":5.5081,"alt":227,"dirs":["E","SE"],"dirsGood":["E","SE"],"tags":["thermals","soaring","flatland"],"country":"BE","link":"https://www.paraglidingearth.com/pgearth/index.php?site=14550"},{"id":"pe14554","name":"Terril d'Anderlues","lat":50.4095,"lon":4.296,"alt":240,"dirs":["NE","SE","S","NW"],"dirsGood":["NE","S","NW"],"tags":["soaring"],"country":"BE","link":"https://www.paraglidingearth.com/pgearth/index.php?site=14554"},{"id":"pe14557","name":"Knokke - Het Zoute","lat":51.3638,"lon":3.338,"alt":3,"dirs":["N","NW"],"dirsGood":["N","NW"],"tags":["soaring"],"country":"BE","link":"https://www.paraglidingearth.com/pgearth/index.php?site=14557"},{"id":"pe14565","name":"Waremme","lat":50.677,"lon":5.2575,"alt":126,"dirs":["E"],"dirsGood":["E"],"tags":["flatland","winch"],"country":"BE","link":"https://www.paraglidingearth.com/pgearth/index.php?site=14565"},{"id":"pe16061","name":"Sommethonne","lat":49.5709,"lon":5.4588,"alt":319,"dirs":["N","W","NW"],"dirsGood":["NW"],"tags":["soaring"],"country":"BE","link":"https://www.paraglidingearth.com/pgearth/index.php?site=16061"},{"id":"pe16874","name":"Büllingen","lat":50.4165,"lon":6.27328,"alt":622,"dirs":[],"dirsGood":[],"tags":[],"country":"BE","link":"https://www.paraglidingearth.com/pgearth/index.php?site=16874"},{"id":"pe17011","name":"Menil","lat":50.2859,"lon":5.84078,"alt":472,"dirs":[],"dirsGood":[],"tags":[],"country":"BE","link":"https://www.paraglidingearth.com/pgearth/index.php?site=17011"},{"id":"pe17124","name":"Maillen","lat":50.3752,"lon":4.9265,"alt":272,"dirs":["NE","E","SE","S","SW","W","NW"],"dirsGood":["E","SE","SW","W"],"tags":[],"country":"BE","link":"https://www.paraglidingearth.com/pgearth/index.php?site=17124"},{"id":"pe19709","name":"Ouren","lat":50.1416,"lon":6.12557,"alt":463,"dirs":["NE","E"],"dirsGood":["E"],"tags":["thermals","soaring","flatland"],"country":"BE","link":"https://www.paraglidingearth.com/pgearth/index.php?site=19709"}]