[{"id":"pe7111","name":"Canoa - El Nido","lat":-0.50436,"lon":-80.4442,"alt":121,"dirs":["SW","W"],"dirsGood":["SW","W"],"tags":["soaring"],"country":"EC","link":"https://www.paraglidingearth.com/pgearth/index.php?site=7111"},{"id":"pe7388","name":"Pichincha","lat":-0.166,"lon":-78.5253,"alt":3840,"dirs":["NE","E"],"dirsGood":["E"],"tags":["thermals"],"country":"EC","link":"https://www.paraglidingearth.com/pgearth/index.php?site=7388"},{"id":"pe10255","name":"Crucita","lat":-0.884,"lon":-80.5452,"alt":91,"dirs":["SW","W","NW"],"dirsGood":["W","NW"],"tags":["xc","thermals","soaring","winch"],"country":"EC","link":"https://www.paraglidingearth.com/pgearth/index.php?site=10255"},{"id":"pe10886","name":"Aloburo","lat":0.37765,"lon":-78.0812,"alt":2716,"dirs":["E","SW","W","NW"],"dirsGood":["E","SW","W","NW"],"tags":["xc","thermals","soaring","winch"],"country":"EC","link":"https://www.paraglidingearth.com/pgearth/index.php?site=10886"},{"id":"pe11311","name":"Mira","lat":0.54563,"lon":-78.0235,"alt":2553,"dirs":["SW"],"dirsGood":["SW"],"tags":["xc","thermals","soaring"],"country":"EC","link":"https://www.paraglidingearth.com/pgearth/index.php?site=11311"},{"id":"pe11331","name":"Ojos del Volcan","lat":-1.38528,"lon":-78.4333,"alt":2433,"dirs":["W"],"dirsGood":["W"],"tags":["xc","thermals","soaring","flatland"],"country":"EC","link":"https://www.paraglidingearth.com/pgearth/index.php?site=11331"},{"id":"pe11338","name":"Niton","lat":-1.28639,"lon":-78.544,"alt":2993,"dirs":["SE","S"],"dirsGood":["SE","S"],"tags":["xc","thermals","soaring","flatland"],"country":"EC","link":"https://www.paraglidingearth.com/pgearth/index.php?site=11338"},{"id":"pe11339","name":"Mundug","lat":-1.30017,"lon":-78.4921,"alt":2865,"dirs":["S"],"dirsGood":["S"],"tags":["xc","thermals","flatland"],"country":"EC","link":"https://www.paraglidingearth.com/pgearth/index.php?site=11339"},{"id":"pe11340","name":"El Tablon","lat":-1.35083,"lon":-78.7103,"alt":2460,"dirs":["N","NE"],"dirsGood":["N","NE"],"tags":["xc","thermals","soaring","flatland"],"country":"EC","link":"https://www.paraglidingearth.com/pgearth/index.php?site=11340"},{"id":"pe11341","name":"Puñalica","lat":-1.39767,"lon":-78.6787,"alt":3955,"dirs":["E"],"dirsGood":["E"],"tags":["xc","thermals","flatland"],"country":"EC","link":"https://www.paraglidingearth.com/pgearth/index.php?site=11341"},{"id":"pe11368","name":"Ibarra","lat":0.3483,"lon":-78.0919,"alt":2681,"dirs":[],"dirsGood":[],"tags":["xc","thermals"],"country":"EC","link":"https://www.paraglidingearth.com/pgearth/index.php?site=11368"},{"id":"pe11558","name":"La Silla (The Chair)","lat":-1.2536,"lon":-80.4352,"alt":464,"dirs":["N","NE","E","SE","S"],"dirsGood":["NE","S"],"tags":["xc","thermals"],"country":"EC","link":"https://www.paraglidingearth.com/pgearth/index.php?site=11558"},{"id":"pe11852","name":"Bototillo","lat":-2.1761,"lon":-80.0071,"alt":312,"dirs":["S","SW"],"dirsGood":["SW"],"tags":["xc","thermals","soaring","flatland"],"country":"EC","link":"https://www.paraglidingearth.com/pgearth/index.php?site=11852"},{"id":"pe12431","name":"Guanabano - La Cadena","lat":-1.7131,"lon":-80.3796,"alt":335,"dirs":[],"dirsGood":[],"tags":[],"country":"EC","link":"https://www.paraglidingearth.com/pgearth/index.php?site=12431"},{"id":"pe13825","name":"Canoa - Loma chica","lat":-0.4729,"lon":-80.4521,"alt":43,"dirs":["SW","W"],"dirsGood":["SW","W"],"tags":[],"country":"EC","link":"https://www.paraglidingearth.com/pgearth/index.php?site=13825"},{"id":"pe14665","name":"San Pedro II","lat":-1.89872,"lon":-80.7304,"alt":64,"dirs":["W"],"dirsGood":["W"],"tags":[],"country":"EC","link":"https://www.paraglidingearth.com/pgearth/index.php?site=14665"},{"id":"pe14666","name":"San Pedro I","lat":-1.95975,"lon":-80.7316,"alt":38,"dirs":["W"],"dirsGood":["W"],"tags":[],"country":"EC","link":"https://www.paraglidingearth.com/pgearth/index.php?site=14666"},{"id":"pe14893","name":"Lumbisí","lat":-0.21469,"lon":-78.4694,"alt":2939,"dirs":["NE","E","SE"],"dirsGood":["NE","E","SE"],"tags":["thermals","soaring"],"country":"EC","link":"https://www.paraglidingearth.com/pgearth/index.php?site=14893"},{"id":"pe16425","name":"Pujili","lat":-0.96502,"lon":-78.7256,"alt":3329,"dirs":[],"dirsGood":[],"tags":[],"country":"EC","link":"https://www.paraglidingearth.com/pgearth/index.php?site=16425"},{"id":"pe16702","name":"Villonaco","lat":-4.0022,"lon":-79.257,"alt":2582,"dirs":["NE","E","SE"],"dirsGood":["E"],"tags":["xc","thermals","flatland"],"country":"EC","link":"https://www.paraglidingearth.com/pgearth/index.php?site=16702"},{"id":"pe16703","name":"Macará","lat":-4.3382,"lon":-79.9079,"alt":1455,"dirs":["SE","S","SW"],"dirsGood":["SE","S","SW"],"tags":["xc","thermals","flatland"],"country":"EC","link":"https://www.paraglidingearth.com/pgearth/index.php?site=16703"},{"id":"pe16705","name":"Pindal","lat":-4.1046,"lon":-80.1018,"alt":823,"dirs":["SW","W","NW"],"dirsGood":["SW","W","NW"],"tags":["xc","thermals","flatland"],"country":"EC","link":"https://www.paraglidingearth.com/pgearth/index.php?site=16705"},{"id":"pe16742","name":"Catamayo 1","lat":-3.97889,"lon":-79.4124,"alt":1767,"dirs":["E"],"dirsGood":["E"],"tags":["xc","thermals","soaring","flatland"],"country":"EC","link":"https://www.paraglidingearth.com/pgearth/index.php?site=16742"},{"id":"pe17067","name":"Cabogana","lat":-2.8387,"lon":-79.0553,"alt":3521,"dirs":[],"dirsGood":[],"tags":["winch"],"country":"EC","link":"https://www.paraglidingearth.com/pgearth/index.php?site=17067"},{"id":"pe17130","name":"La Paz","lat":-2.8522,"lon":-79.076,"alt":3209,"dirs":["N","E"],"dirsGood":["E"],"tags":["winch"],"country":"EC","link":"https://www.paraglidingearth.com/pgearth/index.php?site=17130"},{"id":"pe17160","name":"Catamayo 2","lat":-3.98986,"lon":-79.318,"alt":1984,"dirs":["SW","W","NW"],"dirsGood":["SW","W","NW"],"tags":["xc","thermals","soaring","flatland"],"country":"EC","link":"https://www.paraglidingearth.com/pgearth/index.php?site=17160"},{"id":"pe18698","name":"Imbabura volcano","lat":0.26825,"lon":-78.1534,"alt":3355,"dirs":["N","NE","E"],"dirsGood":["NE"],"tags":["thermals","soaring"],"country":"EC","link":"https://www.paraglidingearth.com/pgearth/index.php?site=18698"},{"id":"pe21373","name":"Radio Faro","lat":-0.03867,"lon":-78.5111,"alt":3584,"dirs":[],"dirsGood":[],"tags":[],"country":"EC","link":"https://www.paraglidingearth.com/pgearth/index.php?site=21373"},{"id":"pe21480","name":"San Luis","lat":-0.02154,"lon":-78.475,"alt":3288,"dirs":[],"dirsGood":[],"tags":[],"country":"EC","link":"https://www.paraglidingearth.com/pgearth/index.php?site=21480"},{"id":"pe22190","name":"Papa George","lat":-2.75732,"lon":-78.7519,"alt":2762,"dirs":["N","NE","E","SE","S","SW","W","NW"],"dirsGood":[],"tags":[],"country":"EC","link":"https://www.paraglidingearth.com/pgearth/index.php?site=22190"},{"id":"pe22228","name":"Torre Loma","lat":-2.09041,"lon":-79.1353,"alt":2441,"dirs":["S","SW","W","NW"],"dirsGood":["SW","W","NW"],"tags":["xc","thermals","soaring","flatland"],"country":"EC","link":"https://www.paraglidingearth.com/pgearth/index.php?site=22228"},{"id":"pe22417","name":"Puerto López","lat":-1.54643,"lon":-80.7948,"alt":268,"dirs":[],"dirsGood":[],"tags":["xc","thermals","soaring","flatland"],"country":"EC","link":"https://www.paraglidingearth.com/pgearth/index.php?site=22417"},{"id":"pe22909","name":"Despegue La Fortuna Chone","lat":-0.69101,"lon":-80.0375,"alt":383,"dirs":["S","SW","W"],"dirsGood":["SW"],"tags":["xc","thermals"],"country":"EC","link":"https://www.paraglidingearth.com/pgearth/index.php?site=22909"},{"id":"pe23815","name":"Barabón","lat":-2.90319,"lon":-79.0954,"alt":3529,"dirs":[],"dirsGood":[],"tags":[],"country":"EC","link":"https://www.paraglidingearth.com/pgearth/index.php?site=23815"},{"id":"pe23816","name":"Busa","lat":-3.1693,"lon":-79.276,"alt":3367,"dirs":[],"dirsGood":[],"tags":[],"country":"EC","link":"https://www.paraglidingearth.com/pgearth/index.php?site=23816"},{"id":"pe23817","name":"Jubones","lat":-3.34756,"lon":-79.3193,"alt":1006,"dirs":[],"dirsGood":[],"tags":[],"country":"EC","link":"https://www.paraglidingearth.com/pgearth/index.php?site=23817"},{"id":"pe23818","name":"Susudel","lat":-3.39498,"lon":-79.188,"alt":2760,"dirs":[],"dirsGood":[],"tags":[],"country":"EC","link":"https://www.paraglidingearth.com/pgearth/index.php?site=23818"},{"id":"pe23819","name":"Don Miguelito Paute","lat":-2.75505,"lon":-78.7518,"alt":2765,"dirs":[],"dirsGood":[],"tags":[],"country":"EC","link":"https://www.paraglidingearth.com/pgearth/index.php?site=23819"},{"id":"pe23820","name":"Minas","lat":-2.83742,"lon":-79.1007,"alt":3785,"dirs":[],"dirsGood":[],"tags":[],"country":"EC","link":"https://www.paraglidingearth.com/pgearth/index.php?site=23820"},{"id":"pe23822","name":"Racar","lat":-2.83017,"lon":-79.0519,"alt":3612,"dirs":[],"dirsGood":[],"tags":[],"country":"EC","link":"https://www.paraglidingearth.com/pgearth/index.php?site=23822"},{"id":"pe23824","name":"Cruzloma","lat":-2.81996,"lon":-79.0493,"alt":3527,"dirs":[],"dirsGood":[],"tags":[],"country":"EC","link":"https://www.paraglidingearth.com/pgearth/index.php?site=23824"},{"id":"pe23851","name":"AYAHUMA","lat":-2.80126,"lon":-78.7978,"alt":2965,"dirs":[],"dirsGood":[],"tags":[],"country":"EC","link":"https://www.paraglidingearth.com/pgearth/index.php?site=23851"},{"id":"pe23941","name":"Cumbaya","lat":-0.22689,"lon":-78.4558,"alt":2478,"dirs":[],"dirsGood":[],"tags":[],"country":"EC","link":"https://www.paraglidingearth.com/pgearth/index.php?site=23941"},{"id":"pe23942","name":"Despegue Palmavega","lat":-1.80279,"lon":-79.2406,"alt":946,"dirs":[],"dirsGood":[],"tags":["xc","thermals","flatland"],"country":"EC","link":"https://www.paraglidingearth.com/pgearth/index.php?site=23942"}]