[{"id":"pe6921","name":"Nkawkaw","lat":6.5776,"lon":-0.7603,"alt":775,"dirs":["SE","S","SW"],"dirsGood":["S"],"tags":["xc","thermals","soaring","flatland"],"country":"GH","link":"https://www.paraglidingearth.com/pgearth/index.php?site=6921"},{"id":"pe10641","name":"Osuduku","lat":6.0537,"lon":0.1869,"alt":341,"dirs":["N","SE","S","SW","W","NW"],"dirsGood":["S","SW","W"],"tags":["thermals","soaring","flatland"],"country":"GH","link":"https://www.paraglidingearth.com/pgearth/index.php?site=10641"},{"id":"pe21405","name":"Amedzofe southwest","lat":6.83047,"lon":0.42756,"alt":761,"dirs":[],"dirsGood":[],"tags":[],"country":"GH","link":"https://www.paraglidingearth.com/pgearth/index.php?site=21405"},{"id":"pe21406","name":"Vane landing","lat":6.82484,"lon":0.42021,"alt":483,"dirs":[],"dirsGood":[],"tags":[],"country":"GH","link":"https://www.paraglidingearth.com/pgearth/index.php?site=21406"},{"id":"pe21407","name":"Amedzofe north (east launch)","lat":6.85546,"lon":0.43339,"alt":-1,"dirs":[],"dirsGood":[],"tags":[],"country":"GH","link":"https://www.paraglidingearth.com/pgearth/index.php?site=21407"},{"id":"pe21408","name":"end of road from Amedzofe.","lat":6.86056,"lon":0.47258,"alt":678,"dirs":[],"dirsGood":[],"tags":[],"country":"GH","link":"https://www.paraglidingearth.com/pgearth/index.php?site=21408"},{"id":"pe21409","name":"Amedzofe (southeast launch)","lat":6.84999,"lon":0.46784,"alt":652,"dirs":[],"dirsGood":[],"tags":[],"country":"GH","link":"https://www.paraglidingearth.com/pgearth/index.php?site=21409"},{"id":"pe21410","name":"West Hills (west launch)","lat":5.54039,"lon":-0.37673,"alt":164,"dirs":[],"dirsGood":[],"tags":[],"country":"GH","link":"https://www.paraglidingearth.com/pgearth/index.php?site=21410"}]