[{"id":"pe9766","name":"Pat Sin","lat":22.5105,"lon":114.212,"alt":500,"dirs":["SE","S","SW"],"dirsGood":["SE","S","SW"],"tags":["soaring"],"country":"HK","link":"https://www.paraglidingearth.com/pgearth/index.php?site=9766"},{"id":"pe9767","name":"Ma On Shan","lat":22.3912,"lon":114.253,"alt":393,"dirs":["NE","E","SE"],"dirsGood":["NE","E","SE"],"tags":["thermals","soaring"],"country":"HK","link":"https://www.paraglidingearth.com/pgearth/index.php?site=9767"},{"id":"pe9768","name":"Cloudy Hills","lat":22.4755,"lon":114.17,"alt":418,"dirs":["SE"],"dirsGood":["SE"],"tags":["soaring"],"country":"HK","link":"https://www.paraglidingearth.com/pgearth/index.php?site=9768"},{"id":"pe9769","name":"Pak Tam Au","lat":22.4228,"lon":114.323,"alt":409,"dirs":["N","NE"],"dirsGood":["N","NE"],"tags":["thermals","soaring"],"country":"HK","link":"https://www.paraglidingearth.com/pgearth/index.php?site=9769"},{"id":"pe9770","name":"Shek-O (Dragon's Back)","lat":22.24,"lon":114.242,"alt":279,"dirs":["NE","E","SE"],"dirsGood":["E"],"tags":["soaring"],"country":"HK","link":"https://www.paraglidingearth.com/pgearth/index.php?site=9770"},{"id":"pe12139","name":"Long Ke Wan","lat":22.3702,"lon":114.374,"alt":131,"dirs":["NE","E","SE"],"dirsGood":["E"],"tags":[],"country":"HK","link":"https://www.paraglidingearth.com/pgearth/index.php?site=12139"},{"id":"pe13564","name":"Lantau","lat":22.2437,"lon":113.951,"alt":342,"dirs":["SE","S","SW"],"dirsGood":["S"],"tags":[],"country":"HK","link":"https://www.paraglidingearth.com/pgearth/index.php?site=13564"},{"id":"pe15110","name":"Wingwaging","lat":22.6915,"lon":114.538,"alt":112,"dirs":[],"dirsGood":[],"tags":[],"country":"HK","link":"https://www.paraglidingearth.com/pgearth/index.php?site=15110"}]