[{"id":"pe10067","name":"Mount Puncak (Gunung Mas Puncak)","lat":-6.70167,"lon":106.984,"alt":1345,"dirs":["SW","W","NW"],"dirsGood":["SW","W","NW"],"tags":["thermals","soaring"],"country":"ID","link":"https://www.paraglidingearth.com/pgearth/index.php?site=10067"},{"id":"pe10112","name":"Bukit Langkisau","lat":-1.3424,"lon":100.573,"alt":168,"dirs":["S","SW","W"],"dirsGood":["SW"],"tags":["thermals","soaring"],"country":"ID","link":"https://www.paraglidingearth.com/pgearth/index.php?site=10112"},{"id":"pe10682","name":"Kemuning","lat":-7.5952,"lon":111.141,"alt":1151,"dirs":[],"dirsGood":[],"tags":["thermals","soaring"],"country":"ID","link":"https://www.paraglidingearth.com/pgearth/index.php?site=10682"},{"id":"pe10878","name":"Mount Banyak (Gunung Banyak)","lat":-7.8556,"lon":112.496,"alt":1242,"dirs":["NE","E","SE"],"dirsGood":["E"],"tags":["xc","thermals","soaring"],"country":"ID","link":"https://www.paraglidingearth.com/pgearth/index.php?site=10878"},{"id":"pe12529","name":"Singkarak","lat":-0.54307,"lon":100.477,"alt":724,"dirs":[],"dirsGood":[],"tags":["thermals","soaring"],"country":"ID","link":"https://www.paraglidingearth.com/pgearth/index.php?site=12529"},{"id":"pe13597","name":"Maninjau","lat":-0.26248,"lon":100.242,"alt":1189,"dirs":["S","SW","W","NW"],"dirsGood":["W"],"tags":["thermals","soaring"],"country":"ID","link":"https://www.paraglidingearth.com/pgearth/index.php?site=13597"},{"id":"pe14053","name":"Wonogiri","lat":-7.845,"lon":110.896,"alt":597,"dirs":["SE","S","SW","W"],"dirsGood":["S","SW"],"tags":["xc","thermals","soaring","flatland"],"country":"ID","link":"https://www.paraglidingearth.com/pgearth/index.php?site=14053"},{"id":"pe14054","name":"Mount Guntur","lat":-7.15777,"lon":107.86,"alt":1404,"dirs":[],"dirsGood":[],"tags":[],"country":"ID","link":"https://www.paraglidingearth.com/pgearth/index.php?site=14054"},{"id":"pe14055","name":"Mount Haruman","lat":-7.07012,"lon":107.946,"alt":941,"dirs":[],"dirsGood":[],"tags":[],"country":"ID","link":"https://www.paraglidingearth.com/pgearth/index.php?site=14055"},{"id":"pe14082","name":"Mt Batur","lat":-8.23757,"lon":115.381,"alt":1575,"dirs":[],"dirsGood":[],"tags":[],"country":"ID","link":"https://www.paraglidingearth.com/pgearth/index.php?site=14082"},{"id":"pe14742","name":"Parangtritis","lat":-8.02889,"lon":110.346,"alt":155,"dirs":["E","SE","S","W"],"dirsGood":["E","S"],"tags":["soaring"],"country":"ID","link":"https://www.paraglidingearth.com/pgearth/index.php?site=14742"},{"id":"pe16940","name":"Gedongsongo","lat":-7.1924,"lon":110.347,"alt":1904,"dirs":["E","SE","S"],"dirsGood":["SE"],"tags":["xc","thermals","soaring"],"country":"ID","link":"https://www.paraglidingearth.com/pgearth/index.php?site=16940"},{"id":"pe16942","name":"Meteseh","lat":-7.0835,"lon":110.48,"alt":191,"dirs":[],"dirsGood":[],"tags":["thermals","soaring"],"country":"ID","link":"https://www.paraglidingearth.com/pgearth/index.php?site=16942"},{"id":"pe18831","name":"Candi Dasa (Bali)","lat":-8.5137,"lon":115.584,"alt":85,"dirs":["SE","S"],"dirsGood":["SE"],"tags":["thermals","soaring"],"country":"ID","link":"https://www.paraglidingearth.com/pgearth/index.php?site=18831"},{"id":"pe19326","name":"Taeh Bukit","lat":-0.13194,"lon":100.614,"alt":1064,"dirs":["N","NE","SW","W","NW"],"dirsGood":["SW","W","NW"],"tags":["xc","thermals","soaring","flatland"],"country":"ID","link":"https://www.paraglidingearth.com/pgearth/index.php?site=19326"},{"id":"pe19485","name":"Matantimali","lat":-0.94888,"lon":119.816,"alt":809,"dirs":["N","NE","E"],"dirsGood":["N","NE"],"tags":["xc","thermals"],"country":"ID","link":"https://www.paraglidingearth.com/pgearth/index.php?site=19485"},{"id":"pe19666","name":"Lapale","lat":-9.6781,"lon":119.422,"alt":334,"dirs":["SE","S"],"dirsGood":["S"],"tags":["xc","thermals","soaring"],"country":"ID","link":"https://www.paraglidingearth.com/pgearth/index.php?site=19666"},{"id":"pe21402","name":"Kekeb Hill (Bukit Kekeb)","lat":-7.31173,"lon":109.961,"alt":1653,"dirs":["W","NW"],"dirsGood":["W"],"tags":[],"country":"ID","link":"https://www.paraglidingearth.com/pgearth/index.php?site=21402"},{"id":"pe21428","name":"Bali Paragliding Tandem GP","lat":-8.83668,"lon":115.205,"alt":66,"dirs":[],"dirsGood":[],"tags":[],"country":"ID","link":"https://www.paraglidingearth.com/pgearth/index.php?site=21428"},{"id":"pe21818","name":"Modangan Beach","lat":-8.34636,"lon":112.367,"alt":152,"dirs":[],"dirsGood":[],"tags":[],"country":"ID","link":"https://www.paraglidingearth.com/pgearth/index.php?site=21818"},{"id":"pe22293","name":"Bali Paragliding Tandem Uluwatu","lat":-8.83866,"lon":115.097,"alt":113,"dirs":[],"dirsGood":[],"tags":[],"country":"ID","link":"https://www.paraglidingearth.com/pgearth/index.php?site=22293"},{"id":"pe22294","name":"Riug Paragliding","lat":-8.83516,"lon":115.209,"alt":70,"dirs":[],"dirsGood":[],"tags":[],"country":"ID","link":"https://www.paraglidingearth.com/pgearth/index.php?site=22294"},{"id":"pe23243","name":"Mount Bromo","lat":-7.93463,"lon":112.948,"alt":2434,"dirs":[],"dirsGood":[],"tags":[],"country":"ID","link":"https://www.paraglidingearth.com/pgearth/index.php?site=23243"},{"id":"pe23324","name":"Skylancing","lat":-8.89513,"lon":116.192,"alt":198,"dirs":[],"dirsGood":[],"tags":[],"country":"ID","link":"https://www.paraglidingearth.com/pgearth/index.php?site=23324"},{"id":"pe23325","name":"Areguling","lat":-8.89853,"lon":116.243,"alt":93,"dirs":[],"dirsGood":[],"tags":[],"country":"ID","link":"https://www.paraglidingearth.com/pgearth/index.php?site=23325"},{"id":"pe23326","name":"Prabu hill","lat":-8.90187,"lon":116.27,"alt":206,"dirs":[],"dirsGood":[],"tags":[],"country":"ID","link":"https://www.paraglidingearth.com/pgearth/index.php?site=23326"}]