[{"id":"pe19253","name":"Goyja","lat":35.5769,"lon":45.4876,"alt":1477,"dirs":["S","SW","W"],"dirsGood":["SW","W"],"tags":["winch"],"country":"IQ","link":"https://www.paraglidingearth.com/pgearth/index.php?site=19253"},{"id":"pe19254","name":"Azmar","lat":35.5803,"lon":45.4959,"alt":1646,"dirs":[],"dirsGood":[],"tags":[],"country":"IQ","link":"https://www.paraglidingearth.com/pgearth/index.php?site=19254"},{"id":"pe19817","name":"Dukan - Sarah Mountain","lat":35.9323,"lon":44.9823,"alt":834,"dirs":["N","SW","W","NW"],"dirsGood":["N","W","NW"],"tags":["xc","thermals","soaring","winch"],"country":"IQ","link":"https://www.paraglidingearth.com/pgearth/index.php?site=19817"},{"id":"pe19818","name":"Amedi - Maten Mountain","lat":37.1168,"lon":43.4814,"alt":1626,"dirs":["SE","S","SW"],"dirsGood":["SE","S","SW"],"tags":["xc","thermals","soaring","flatland"],"country":"IQ","link":"https://www.paraglidingearth.com/pgearth/index.php?site=19818"},{"id":"pe23473","name":"mar matiy","lat":36.4983,"lon":43.4402,"alt":1038,"dirs":[],"dirsGood":[],"tags":[],"country":"IQ","link":"https://www.paraglidingearth.com/pgearth/index.php?site=23473"}]