[{"id":"pe10009","name":"Skyline","lat":18.0302,"lon":-76.7408,"alt":445,"dirs":["E","SE","S","SW","W"],"dirsGood":["SE","S","SW"],"tags":["xc","thermals","soaring"],"country":"JM","link":"https://www.paraglidingearth.com/pgearth/index.php?site=10009"},{"id":"pe11035","name":"John Crow Hill","lat":17.9688,"lon":-77.716,"alt":603,"dirs":["SE","S","SW","W","NW"],"dirsGood":["S","SW","W"],"tags":["thermals","soaring","flatland"],"country":"JM","link":"https://www.paraglidingearth.com/pgearth/index.php?site=11035"},{"id":"pe11036","name":"Freehill","lat":18.4198,"lon":-77.2674,"alt":567,"dirs":["N","NE","E"],"dirsGood":["N","NE","E"],"tags":["thermals","soaring","flatland"],"country":"JM","link":"https://www.paraglidingearth.com/pgearth/index.php?site=11036"},{"id":"pe16134","name":"Pen Hill - Kirkvine","lat":18.1031,"lon":-77.489,"alt":845,"dirs":["E","SE","S","SW","W"],"dirsGood":["S","SW"],"tags":["thermals","soaring","flatland"],"country":"JM","link":"https://www.paraglidingearth.com/pgearth/index.php?site=16134"},{"id":"pe17028","name":"Spur Tree South","lat":17.9862,"lon":-77.5647,"alt":600,"dirs":["SE","S","SW","W","NW"],"dirsGood":["S","SW","W"],"tags":["thermals","soaring","flatland"],"country":"JM","link":"https://www.paraglidingearth.com/pgearth/index.php?site=17028"},{"id":"pe17711","name":"Lovers Leap","lat":17.869,"lon":-77.6612,"alt":509,"dirs":["E","SE","S","SW"],"dirsGood":["SE","S"],"tags":["soaring"],"country":"JM","link":"https://www.paraglidingearth.com/pgearth/index.php?site=17711"},{"id":"pe19735","name":"Cabbage Hill","lat":17.9554,"lon":-76.5864,"alt":870,"dirs":["E","SE","S","SW","W"],"dirsGood":["SE","S","SW"],"tags":["xc","thermals","soaring"],"country":"JM","link":"https://www.paraglidingearth.com/pgearth/index.php?site=19735"}]