[{"id":"pe6645","name":"Saldus","lat":56.696,"lon":22.4356,"alt":117,"dirs":[],"dirsGood":[],"tags":[],"country":"LV","link":"https://www.paraglidingearth.com/pgearth/index.php?site=6645"},{"id":"pe6726","name":"Jurkalne","lat":57.0366,"lon":21.4026,"alt":8,"dirs":["N","W","NW"],"dirsGood":["NW"],"tags":["soaring"],"country":"LV","link":"https://www.paraglidingearth.com/pgearth/index.php?site=6726"},{"id":"pe6804","name":"Skriveri","lat":56.6262,"lon":25.1209,"alt":59,"dirs":["SE","S","SW"],"dirsGood":["S"],"tags":["soaring"],"country":"LV","link":"https://www.paraglidingearth.com/pgearth/index.php?site=6804"},{"id":"pe6810","name":"Sabile","lat":57.0316,"lon":22.4985,"alt":79,"dirs":[],"dirsGood":[],"tags":[],"country":"LV","link":"https://www.paraglidingearth.com/pgearth/index.php?site=6810"},{"id":"pe11152","name":"Rumbula","lat":56.8853,"lon":24.2194,"alt":7,"dirs":["N","E","SE","S","W","NW"],"dirsGood":["SE","NW"],"tags":["winch"],"country":"LV","link":"https://www.paraglidingearth.com/pgearth/index.php?site=11152"},{"id":"pe11554","name":"Gr&#299;va","lat":55.8907,"lon":26.4599,"alt":89,"dirs":["N","NE","E","SE","S","SW","W","NW"],"dirsGood":["N","NE","E","SE","S","SW","W","NW"],"tags":["flatland","winch"],"country":"LV","link":"https://www.paraglidingearth.com/pgearth/index.php?site=11554"},{"id":"pe13544","name":"Nakotne","lat":56.6201,"lon":23.4929,"alt":8,"dirs":[],"dirsGood":[],"tags":[],"country":"LV","link":"https://www.paraglidingearth.com/pgearth/index.php?site=13544"},{"id":"pe16556","name":"Baldone","lat":56.7381,"lon":24.3565,"alt":41,"dirs":[],"dirsGood":[],"tags":[],"country":"LV","link":"https://www.paraglidingearth.com/pgearth/index.php?site=16556"},{"id":"pe17685","name":"Krustpils air field","lat":56.5348,"lon":25.8886,"alt":95,"dirs":[],"dirsGood":[],"tags":["thermals","flatland","winch"],"country":"LV","link":"https://www.paraglidingearth.com/pgearth/index.php?site=17685"},{"id":"pe23268","name":"Gulbene","lat":57.1592,"lon":26.8023,"alt":121,"dirs":[],"dirsGood":[],"tags":["flatland","winch"],"country":"LV","link":"https://www.paraglidingearth.com/pgearth/index.php?site=23268"},{"id":"pe23269","name":"Vonadziņi boat winch","lat":57.253,"lon":26.8953,"alt":122,"dirs":[],"dirsGood":[],"tags":["flatland","winch"],"country":"LV","link":"https://www.paraglidingearth.com/pgearth/index.php?site=23269"}]