[{"id":"pe10137","name":"Roghi","lat":46.7758,"lon":28.2138,"alt":125,"dirs":["N","NE","E","W","NW"],"dirsGood":["N","NE","NW"],"tags":["thermals","soaring","flatland"],"country":"MD","link":"https://www.paraglidingearth.com/pgearth/index.php?site=10137"},{"id":"pe10501","name":"Rogi - Dachi","lat":47.3352,"lon":29.1665,"alt":113,"dirs":["W","NW"],"dirsGood":["NW"],"tags":["xc","thermals","soaring"],"country":"MD","link":"https://www.paraglidingearth.com/pgearth/index.php?site=10501"},{"id":"pe15547","name":"Imasu Negureni","lat":47.5687,"lon":28.5132,"alt":42,"dirs":[],"dirsGood":[],"tags":[],"country":"MD","link":"https://www.paraglidingearth.com/pgearth/index.php?site=15547"},{"id":"pe23314","name":"Firladeni","lat":46.7851,"lon":29.287,"alt":158,"dirs":[],"dirsGood":[],"tags":["thermals","soaring"],"country":"MD","link":"https://www.paraglidingearth.com/pgearth/index.php?site=23314"},{"id":"pe23943","name":"Molovata","lat":47.3638,"lon":29.0769,"alt":107,"dirs":[],"dirsGood":[],"tags":["xc","thermals","soaring"],"country":"MD","link":"https://www.paraglidingearth.com/pgearth/index.php?site=23943"},{"id":"pe23944","name":"Trebujeni south","lat":47.3099,"lon":28.9615,"alt":124,"dirs":[],"dirsGood":[],"tags":["xc","thermals","soaring"],"country":"MD","link":"https://www.paraglidingearth.com/pgearth/index.php?site=23944"},{"id":"pe23945","name":"Trebujeni west","lat":47.3087,"lon":28.9922,"alt":103,"dirs":[],"dirsGood":[],"tags":["xc","thermals"],"country":"MD","link":"https://www.paraglidingearth.com/pgearth/index.php?site=23945"}]