[{"id":"pe9280","name":"ghajn tuffieha bay","lat":35.9283,"lon":14.347,"alt":49,"dirs":["W","NW"],"dirsGood":["W","NW"],"tags":["soaring"],"country":"MT","link":"https://www.paraglidingearth.com/pgearth/index.php?site=9280"},{"id":"pe9281","name":"qammieh","lat":35.9722,"lon":14.3345,"alt":114,"dirs":["S"],"dirsGood":["S"],"tags":["soaring"],"country":"MT","link":"https://www.paraglidingearth.com/pgearth/index.php?site=9281"},{"id":"pe9282","name":"Dingli cliffs","lat":35.8599,"lon":14.3706,"alt":232,"dirs":["SW"],"dirsGood":["SW"],"tags":["soaring"],"country":"MT","link":"https://www.paraglidingearth.com/pgearth/index.php?site=9282"},{"id":"pe9283","name":"Top of the world","lat":35.9311,"lon":14.4525,"alt":123,"dirs":["N","NW"],"dirsGood":["N","NW"],"tags":["thermals","soaring"],"country":"MT","link":"https://www.paraglidingearth.com/pgearth/index.php?site=9283"},{"id":"pe9284","name":"delli","lat":35.9549,"lon":14.3426,"alt":46,"dirs":["SW","W"],"dirsGood":["SW","W"],"tags":["soaring"],"country":"MT","link":"https://www.paraglidingearth.com/pgearth/index.php?site=9284"},{"id":"pe9285","name":"znuber","lat":35.9498,"lon":14.3407,"alt":69,"dirs":["NW"],"dirsGood":["NW"],"tags":["soaring"],"country":"MT","link":"https://www.paraglidingearth.com/pgearth/index.php?site=9285"},{"id":"pe15017","name":"gakab mosta","lat":35.9196,"lon":14.4194,"alt":44,"dirs":[],"dirsGood":[],"tags":[],"country":"MT","link":"https://www.paraglidingearth.com/pgearth/index.php?site=15017"},{"id":"pe15364","name":"bahrija kuncizjoni","lat":35.8986,"lon":14.3554,"alt":218,"dirs":["NE"],"dirsGood":[],"tags":[],"country":"MT","link":"https://www.paraglidingearth.com/pgearth/index.php?site=15364"},{"id":"pe15720","name":"mistra","lat":35.9601,"lon":14.3846,"alt":73,"dirs":["E","SE","S"],"dirsGood":["SE"],"tags":[],"country":"MT","link":"https://www.paraglidingearth.com/pgearth/index.php?site=15720"},{"id":"pe18838","name":"Burmarrad","lat":35.9313,"lon":14.4073,"alt":91,"dirs":["E"],"dirsGood":["E"],"tags":["thermals","soaring"],"country":"MT","link":"https://www.paraglidingearth.com/pgearth/index.php?site=18838"},{"id":"pe18839","name":"Mtahleb","lat":35.881,"lon":14.3471,"alt":171,"dirs":["S","SW"],"dirsGood":["S"],"tags":["thermals","soaring"],"country":"MT","link":"https://www.paraglidingearth.com/pgearth/index.php?site=18839"},{"id":"pe23138","name":"Nadur","lat":36.0367,"lon":14.2911,"alt":149,"dirs":["S"],"dirsGood":["S"],"tags":[],"country":"MT","link":"https://www.paraglidingearth.com/pgearth/index.php?site=23138"}]