[{"id":"pe11619","name":"Spreets Hoogte","lat":-23.6337,"lon":16.184,"alt":1634,"dirs":[],"dirsGood":[],"tags":["xc","thermals","flatland"],"country":"NA","link":"https://www.paraglidingearth.com/pgearth/index.php?site=11619"},{"id":"pe13283","name":"Take off Pad Burgsdorf","lat":-25.0015,"lon":16.903,"alt":1389,"dirs":[],"dirsGood":[],"tags":[],"country":"NA","link":"https://www.paraglidingearth.com/pgearth/index.php?site=13283"},{"id":"pe13332","name":"Hohingeslost","lat":-29.2884,"lon":21.1555,"alt":833,"dirs":[],"dirsGood":[],"tags":[],"country":"NA","link":"https://www.paraglidingearth.com/pgearth/index.php?site=13332"},{"id":"pe13838","name":"Pokweni","lat":-23.6401,"lon":17.7223,"alt":1274,"dirs":[],"dirsGood":[],"tags":[],"country":"NA","link":"https://www.paraglidingearth.com/pgearth/index.php?site=13838"},{"id":"pe13843","name":"Farm Moreson Maltahoehe District","lat":-25.0961,"lon":16.9023,"alt":1423,"dirs":[],"dirsGood":[],"tags":[],"country":"NA","link":"https://www.paraglidingearth.com/pgearth/index.php?site=13843"},{"id":"pe16139","name":"Sandwich Harbour","lat":-23.3086,"lon":14.4999,"alt":23,"dirs":[],"dirsGood":[],"tags":[],"country":"NA","link":"https://www.paraglidingearth.com/pgearth/index.php?site=16139"},{"id":"pe16177","name":"Henties Bay","lat":-22.0813,"lon":14.2438,"alt":8,"dirs":[],"dirsGood":[],"tags":[],"country":"NA","link":"https://www.paraglidingearth.com/pgearth/index.php?site=16177"},{"id":"pe16647","name":"Torra Bay","lat":-20.3271,"lon":13.2886,"alt":26,"dirs":[],"dirsGood":[],"tags":[],"country":"NA","link":"https://www.paraglidingearth.com/pgearth/index.php?site=16647"},{"id":"pe16653","name":"Büllsport 1","lat":-24.1504,"lon":16.3462,"alt":1712,"dirs":[],"dirsGood":[],"tags":[],"country":"NA","link":"https://www.paraglidingearth.com/pgearth/index.php?site=16653"},{"id":"pe17307","name":"Langstrand Dunes","lat":-22.7685,"lon":14.5434,"alt":13,"dirs":[],"dirsGood":[],"tags":[],"country":"NA","link":"https://www.paraglidingearth.com/pgearth/index.php?site=17307"},{"id":"pe19359","name":"Vogelberg","lat":-23.057,"lon":14.986,"alt":518,"dirs":["N","NE","SE","S","SW","W","NW"],"dirsGood":["N","S","SW","W","NW"],"tags":["soaring"],"country":"NA","link":"https://www.paraglidingearth.com/pgearth/index.php?site=19359"}]