[{"id":"pe6881","name":"Ouen Toro","lat":-22.3077,"lon":166.458,"alt":70,"dirs":["E","SE","S","SW"],"dirsGood":["SE","S"],"tags":["soaring"],"country":"NC","link":"https://www.paraglidingearth.com/pgearth/index.php?site=6881"},{"id":"pe6882","name":"Dzumac","lat":-22.1102,"lon":166.447,"alt":618,"dirs":["SE","S","SW","W"],"dirsGood":["SE","S","SW"],"tags":["xc","thermals"],"country":"NC","link":"https://www.paraglidingearth.com/pgearth/index.php?site=6882"},{"id":"pe6883","name":"Kuendu Beach","lat":-22.2607,"lon":166.399,"alt":91,"dirs":["SW","W","NW"],"dirsGood":["W","NW"],"tags":["thermals","soaring"],"country":"NC","link":"https://www.paraglidingearth.com/pgearth/index.php?site=6883"},{"id":"pe6884","name":"Mont Dore","lat":-22.2802,"lon":166.602,"alt":347,"dirs":["S","SW"],"dirsGood":["S","SW"],"tags":["thermals","soaring"],"country":"NC","link":"https://www.paraglidingearth.com/pgearth/index.php?site=6884"},{"id":"pe6885","name":"Gadji","lat":-22.1988,"lon":166.354,"alt":44,"dirs":["E","SE","S"],"dirsGood":["SE","S"],"tags":["thermals","soaring"],"country":"NC","link":"https://www.paraglidingearth.com/pgearth/index.php?site=6885"},{"id":"pe6886","name":"Ga Kaleon","lat":-20.6885,"lon":164.939,"alt":163,"dirs":["E","SE"],"dirsGood":["E","SE"],"tags":["soaring"],"country":"NC","link":"https://www.paraglidingearth.com/pgearth/index.php?site=6886"},{"id":"pe6887","name":"La Roche Percee","lat":-21.6064,"lon":165.456,"alt":52,"dirs":["S","SW","W"],"dirsGood":["SW","W"],"tags":["soaring"],"country":"NC","link":"https://www.paraglidingearth.com/pgearth/index.php?site=6887"},{"id":"pe6925","name":"Barendeu","lat":-21.4544,"lon":165.368,"alt":675,"dirs":["SE","S","SW","W"],"dirsGood":["S","SW"],"tags":["xc"],"country":"NC","link":"https://www.paraglidingearth.com/pgearth/index.php?site=6925"},{"id":"pe21733","name":"Oua Koué","lat":-21.5988,"lon":165.378,"alt":139,"dirs":["E","SE","S","SW"],"dirsGood":["SE","S"],"tags":["thermals","soaring"],"country":"NC","link":"https://www.paraglidingearth.com/pgearth/index.php?site=21733"},{"id":"pe21807","name":"Mont Tonta","lat":-21.9348,"lon":166.25,"alt":1130,"dirs":["SE","S","SW","W"],"dirsGood":["S","SW"],"tags":["xc"],"country":"NC","link":"https://www.paraglidingearth.com/pgearth/index.php?site=21807"},{"id":"pe21808","name":"Kendu beach cliff","lat":-22.2622,"lon":166.389,"alt":9,"dirs":["S","SW","W"],"dirsGood":["SW"],"tags":["soaring"],"country":"NC","link":"https://www.paraglidingearth.com/pgearth/index.php?site=21808"},{"id":"pe21809","name":"Bouraké","lat":-21.9145,"lon":165.975,"alt":219,"dirs":["S","SW","W"],"dirsGood":["SW"],"tags":["thermals","soaring"],"country":"NC","link":"https://www.paraglidingearth.com/pgearth/index.php?site=21809"},{"id":"pe21810","name":"Leprédour","lat":-21.9817,"lon":165.997,"alt":157,"dirs":["S","SW","W"],"dirsGood":["S","SW"],"tags":["soaring"],"country":"NC","link":"https://www.paraglidingearth.com/pgearth/index.php?site=21810"},{"id":"pe21811","name":"ga Wivaék","lat":-20.6924,"lon":164.96,"alt":296,"dirs":["N","NE","E"],"dirsGood":["NE"],"tags":["thermals"],"country":"NC","link":"https://www.paraglidingearth.com/pgearth/index.php?site=21811"},{"id":"pe21812","name":"Ouano","lat":-21.8705,"lon":165.822,"alt":51,"dirs":["E","SE","S","SW"],"dirsGood":["SE","S"],"tags":["soaring"],"country":"NC","link":"https://www.paraglidingearth.com/pgearth/index.php?site=21812"}]