[{"id":"pe9932","name":"Kasay beach flight park","lat":13.4674,"lon":120.719,"alt":310,"dirs":["N","NE","E"],"dirsGood":[],"tags":["thermals","soaring"],"country":"PH","link":"https://www.paraglidingearth.com/pgearth/index.php?site=9932"},{"id":"pe9933","name":"Dingalan","lat":15.3838,"lon":121.409,"alt":14,"dirs":["NE","E"],"dirsGood":["NE","E"],"tags":["thermals","soaring"],"country":"PH","link":"https://www.paraglidingearth.com/pgearth/index.php?site=9933"},{"id":"pe9934","name":"Montalban","lat":14.7251,"lon":121.167,"alt":405,"dirs":["SW","W"],"dirsGood":["SW","W"],"tags":["xc","thermals","soaring"],"country":"PH","link":"https://www.paraglidingearth.com/pgearth/index.php?site=9934"},{"id":"pe9935","name":"Nabas","lat":11.8159,"lon":122.095,"alt":11,"dirs":["NE","E","SE"],"dirsGood":["NE","E","SE"],"tags":["xc","thermals","soaring"],"country":"PH","link":"https://www.paraglidingearth.com/pgearth/index.php?site=9935"},{"id":"pe14425","name":"Carmona","lat":14.2847,"lon":121.039,"alt":114,"dirs":["N","NE"],"dirsGood":["N","NE"],"tags":["thermals","soaring"],"country":"PH","link":"https://www.paraglidingearth.com/pgearth/index.php?site=14425"},{"id":"pe14493","name":"Punod","lat":10.5203,"lon":123.324,"alt":705,"dirs":["NE","E"],"dirsGood":["NE","E"],"tags":["xc","thermals","soaring"],"country":"PH","link":"https://www.paraglidingearth.com/pgearth/index.php?site=14493"},{"id":"pe14855","name":"Nataban Peak","lat":10.5047,"lon":123.315,"alt":760,"dirs":["S","SW"],"dirsGood":[],"tags":["soaring"],"country":"PH","link":"https://www.paraglidingearth.com/pgearth/index.php?site=14855"},{"id":"pe15848","name":"safi ranch","lat":5.9533,"lon":125.079,"alt":324,"dirs":["NE","E","SE","S","SW"],"dirsGood":["SE","S"],"tags":["xc","thermals","soaring","flatland"],"country":"PH","link":"https://www.paraglidingearth.com/pgearth/index.php?site=15848"},{"id":"pe19300","name":"Marcillia","lat":12.0045,"lon":120.326,"alt":180,"dirs":["N","NE","E"],"dirsGood":["NE","E"],"tags":["thermals","soaring"],"country":"PH","link":"https://www.paraglidingearth.com/pgearth/index.php?site=19300"},{"id":"pe19306","name":"St Nicholas valley","lat":12.0771,"lon":120.182,"alt":180,"dirs":["N","NE","E","W","NW"],"dirsGood":["N","NE","NW"],"tags":["thermals","soaring"],"country":"PH","link":"https://www.paraglidingearth.com/pgearth/index.php?site=19306"},{"id":"pe19558","name":"Puro island, Tablas,","lat":12.1446,"lon":122.041,"alt":45,"dirs":["NE","E","SE"],"dirsGood":["E"],"tags":["soaring"],"country":"PH","link":"https://www.paraglidingearth.com/pgearth/index.php?site=19558"},{"id":"pe19574","name":"NOAH flysite","lat":17.4332,"lon":120.455,"alt":204,"dirs":[],"dirsGood":[],"tags":["xc","thermals","soaring","flatland"],"country":"PH","link":"https://www.paraglidingearth.com/pgearth/index.php?site=19574"},{"id":"pe19617","name":"Omaya mountain","lat":15.027,"lon":120.197,"alt":611,"dirs":["N","NE","E","SE","S","SW","W","NW"],"dirsGood":["NE","E","SE"],"tags":["xc","thermals","soaring"],"country":"PH","link":"https://www.paraglidingearth.com/pgearth/index.php?site=19617"},{"id":"pe19618","name":"Labney Grassy mountain","lat":15.5756,"lon":120.275,"alt":687,"dirs":["NE","E","SE","S"],"dirsGood":["NE","E","SE"],"tags":["xc","thermals"],"country":"PH","link":"https://www.paraglidingearth.com/pgearth/index.php?site=19618"},{"id":"pe19619","name":"Labney jungle start","lat":15.5652,"lon":120.313,"alt":538,"dirs":["SW","W","NW"],"dirsGood":["SW","W","NW"],"tags":["xc","thermals"],"country":"PH","link":"https://www.paraglidingearth.com/pgearth/index.php?site=19619"},{"id":"pe19646","name":"Mambajao","lat":9.2262,"lon":124.707,"alt":264,"dirs":["N"],"dirsGood":["N"],"tags":["thermals"],"country":"PH","link":"https://www.paraglidingearth.com/pgearth/index.php?site=19646"},{"id":"pe19703","name":"Mike V FlySite","lat":14.0522,"lon":120.495,"alt":18,"dirs":["NE","E"],"dirsGood":["NE"],"tags":["thermals","soaring","winch"],"country":"PH","link":"https://www.paraglidingearth.com/pgearth/index.php?site=19703"},{"id":"pe21445","name":"Pitogo Point, Tabugon, Tablas Island.","lat":12.1428,"lon":122.012,"alt":70,"dirs":["NE","E","SE"],"dirsGood":["E","SE"],"tags":["soaring"],"country":"PH","link":"https://www.paraglidingearth.com/pgearth/index.php?site=21445"},{"id":"pe21667","name":"Oslob, Cebu","lat":9.52688,"lon":123.409,"alt":515,"dirs":[],"dirsGood":[],"tags":["xc","thermals","soaring","flatland"],"country":"PH","link":"https://www.paraglidingearth.com/pgearth/index.php?site=21667"},{"id":"pe21894","name":"Mount Caniaw","lat":17.6029,"lon":120.486,"alt":731,"dirs":[],"dirsGood":[],"tags":[],"country":"PH","link":"https://www.paraglidingearth.com/pgearth/index.php?site=21894"},{"id":"pe21895","name":"Tubalina Pass","lat":17.1857,"lon":120.653,"alt":1092,"dirs":[],"dirsGood":[],"tags":[],"country":"PH","link":"https://www.paraglidingearth.com/pgearth/index.php?site=21895"},{"id":"pe22471","name":"NMPC PG club","lat":8.42691,"lon":124.664,"alt":236,"dirs":[],"dirsGood":[],"tags":[],"country":"PH","link":"https://www.paraglidingearth.com/pgearth/index.php?site=22471"},{"id":"pe23005","name":"Mount Malindang Gardens of the World","lat":8.16111,"lon":123.688,"alt":1084,"dirs":[],"dirsGood":[],"tags":[],"country":"PH","link":"https://www.paraglidingearth.com/pgearth/index.php?site=23005"},{"id":"pe23006","name":"Mount Malindang East Landing","lat":8.16155,"lon":123.713,"alt":565,"dirs":[],"dirsGood":[],"tags":[],"country":"PH","link":"https://www.paraglidingearth.com/pgearth/index.php?site=23006"},{"id":"pe23014","name":"Canangay","lat":10.9758,"lon":123.979,"alt":188,"dirs":[],"dirsGood":[],"tags":[],"country":"PH","link":"https://www.paraglidingearth.com/pgearth/index.php?site=23014"},{"id":"pe23015","name":"Cebu City","lat":10.3996,"lon":123.872,"alt":528,"dirs":[],"dirsGood":[],"tags":[],"country":"PH","link":"https://www.paraglidingearth.com/pgearth/index.php?site=23015"},{"id":"pe23497","name":"Chocolate Hill","lat":9.78848,"lon":124.168,"alt":348,"dirs":["NE","E","SE"],"dirsGood":[],"tags":[],"country":"PH","link":"https://www.paraglidingearth.com/pgearth/index.php?site=23497"},{"id":"pe23498","name":"Mahinog","lat":9.17731,"lon":124.755,"alt":694,"dirs":["NE","E","SE"],"dirsGood":[],"tags":[],"country":"PH","link":"https://www.paraglidingearth.com/pgearth/index.php?site=23498"}]