[{"id":"pe6658","name":"Fairy Meadows","lat":35.4053,"lon":74.5854,"alt":2995,"dirs":[],"dirsGood":[],"tags":[],"country":"PK","link":"https://www.paraglidingearth.com/pgearth/index.php?site=6658"},{"id":"pe7558","name":"Rajdhani","lat":33.7771,"lon":72.9647,"alt":1079,"dirs":["SE","S","SW","W","NW"],"dirsGood":["SE","S","SW","W","NW"],"tags":["xc","thermals","soaring"],"country":"PK","link":"https://www.paraglidingearth.com/pgearth/index.php?site=7558"},{"id":"pe7587","name":"Birmoghlasht (Summer Palace)","lat":35.8854,"lon":71.7666,"alt":2583,"dirs":["NE","SE"],"dirsGood":["NE","SE"],"tags":["xc","thermals","soaring"],"country":"PK","link":"https://www.paraglidingearth.com/pgearth/index.php?site=7587"},{"id":"pe7605","name":"Eagle's Nest","lat":36.3284,"lon":74.6801,"alt":2729,"dirs":["E","SE","S","SW","W"],"dirsGood":["E","SE","S","SW","W"],"tags":["xc","thermals","soaring"],"country":"PK","link":"https://www.paraglidingearth.com/pgearth/index.php?site=7605"},{"id":"pe8267","name":"Uttul","lat":36.3182,"lon":72.1626,"alt":3800,"dirs":["SE","S","SW"],"dirsGood":["SE","S","SW"],"tags":["xc","thermals"],"country":"PK","link":"https://www.paraglidingearth.com/pgearth/index.php?site=8267"},{"id":"pe9293","name":"Kohala","lat":33.8419,"lon":72.953,"alt":1289,"dirs":["SE","S"],"dirsGood":["SE","S"],"tags":["xc","thermals","soaring"],"country":"PK","link":"https://www.paraglidingearth.com/pgearth/index.php?site=9293"},{"id":"pe10125","name":"Mung","lat":33.9043,"lon":72.896,"alt":580,"dirs":["N","NE","NW"],"dirsGood":["N","NE","NW"],"tags":[],"country":"PK","link":"https://www.paraglidingearth.com/pgearth/index.php?site=10125"},{"id":"pe10126","name":"Express Way Site","lat":33.9031,"lon":73.4038,"alt":1995,"dirs":["E","SE","S"],"dirsGood":["E","SE","S"],"tags":["xc","thermals","soaring"],"country":"PK","link":"https://www.paraglidingearth.com/pgearth/index.php?site=10126"},{"id":"pe10739","name":"Shigar","lat":35.4398,"lon":75.7419,"alt":2744,"dirs":["N","NE","E","SE","S","SW","W","NW"],"dirsGood":["S","SW","W","NW"],"tags":["xc","thermals"],"country":"PK","link":"https://www.paraglidingearth.com/pgearth/index.php?site=10739"},{"id":"pe10740","name":"Chunda","lat":35.3367,"lon":75.5008,"alt":2897,"dirs":["NE"],"dirsGood":["NE"],"tags":["xc","thermals"],"country":"PK","link":"https://www.paraglidingearth.com/pgearth/index.php?site=10740"},{"id":"pe11151","name":"Choa Saidan Shah","lat":32.7339,"lon":73.0042,"alt":801,"dirs":["N","NE","NW"],"dirsGood":["N"],"tags":["xc","soaring"],"country":"PK","link":"https://www.paraglidingearth.com/pgearth/index.php?site=11151"},{"id":"pe11314","name":"Pir Chinasi","lat":34.384,"lon":73.5446,"alt":2790,"dirs":["NE","E","SE","S","SW","W","NW"],"dirsGood":["SW","W"],"tags":["xc","thermals","soaring"],"country":"PK","link":"https://www.paraglidingearth.com/pgearth/index.php?site=11314"},{"id":"pe12282","name":"Yasin village soccer field","lat":36.3958,"lon":73.3222,"alt":2991,"dirs":[],"dirsGood":[],"tags":[],"country":"PK","link":"https://www.paraglidingearth.com/pgearth/index.php?site=12282"},{"id":"pe13140","name":"end of Shigar Valley","lat":35.8901,"lon":75.3424,"alt":4283,"dirs":[],"dirsGood":[],"tags":[],"country":"PK","link":"https://www.paraglidingearth.com/pgearth/index.php?site=13140"},{"id":"pe13141","name":"Shigar","lat":35.8862,"lon":75.3769,"alt":3619,"dirs":[],"dirsGood":[],"tags":[],"country":"PK","link":"https://www.paraglidingearth.com/pgearth/index.php?site=13141"},{"id":"pe13142","name":"Lasht","lat":36.8298,"lon":73.1443,"alt":4233,"dirs":[],"dirsGood":[],"tags":[],"country":"PK","link":"https://www.paraglidingearth.com/pgearth/index.php?site=13142"},{"id":"pe13143","name":"Booni","lat":36.286,"lon":72.316,"alt":2571,"dirs":[],"dirsGood":[],"tags":[],"country":"PK","link":"https://www.paraglidingearth.com/pgearth/index.php?site=13143"},{"id":"pe13144","name":"Chitral","lat":35.9625,"lon":71.7595,"alt":3492,"dirs":[],"dirsGood":[],"tags":[],"country":"PK","link":"https://www.paraglidingearth.com/pgearth/index.php?site=13144"},{"id":"pe13145","name":"Chitral","lat":35.8408,"lon":71.7156,"alt":3303,"dirs":[],"dirsGood":[],"tags":[],"country":"PK","link":"https://www.paraglidingearth.com/pgearth/index.php?site=13145"},{"id":"pe13146","name":"Lake 4700m","lat":36.1705,"lon":74.871,"alt":4368,"dirs":[],"dirsGood":[],"tags":[],"country":"PK","link":"https://www.paraglidingearth.com/pgearth/index.php?site=13146"},{"id":"pe13147","name":"Chalt","lat":36.3622,"lon":74.2505,"alt":4310,"dirs":[],"dirsGood":[],"tags":[],"country":"PK","link":"https://www.paraglidingearth.com/pgearth/index.php?site=13147"},{"id":"pe13639","name":"Teru","lat":36.1976,"lon":72.8213,"alt":3651,"dirs":[],"dirsGood":[],"tags":[],"country":"PK","link":"https://www.paraglidingearth.com/pgearth/index.php?site=13639"},{"id":"pe13642","name":"Tarashing","lat":35.2455,"lon":74.7441,"alt":3376,"dirs":[],"dirsGood":[],"tags":[],"country":"PK","link":"https://www.paraglidingearth.com/pgearth/index.php?site=13642"},{"id":"pe15337","name":"Rawaal","lat":32.7236,"lon":73.1919,"alt":522,"dirs":["E","SE","S","SW"],"dirsGood":["SE","S","SW"],"tags":[],"country":"PK","link":"https://www.paraglidingearth.com/pgearth/index.php?site=15337"},{"id":"pe16354","name":"Baba Gundi","lat":36.8171,"lon":74.2999,"alt":4019,"dirs":[],"dirsGood":[],"tags":[],"country":"PK","link":"https://www.paraglidingearth.com/pgearth/index.php?site=16354"},{"id":"pe16355","name":"Behind Tupopdan","lat":36.5433,"lon":74.9808,"alt":4166,"dirs":[],"dirsGood":[],"tags":[],"country":"PK","link":"https://www.paraglidingearth.com/pgearth/index.php?site=16355"},{"id":"pe16356","name":"Above Faizabad","lat":36.3309,"lon":74.7251,"alt":4049,"dirs":[],"dirsGood":[],"tags":[],"country":"PK","link":"https://www.paraglidingearth.com/pgearth/index.php?site=16356"},{"id":"pe16499","name":"Eagle's Nest - West","lat":36.3314,"lon":74.6047,"alt":3952,"dirs":[],"dirsGood":[],"tags":[],"country":"PK","link":"https://www.paraglidingearth.com/pgearth/index.php?site=16499"},{"id":"pe16523","name":"Damalgan","lat":36.2766,"lon":73.3718,"alt":3870,"dirs":[],"dirsGood":[],"tags":[],"country":"PK","link":"https://www.paraglidingearth.com/pgearth/index.php?site=16523"},{"id":"pe16524","name":"Ishkomen East","lat":36.3615,"lon":73.8845,"alt":3941,"dirs":[],"dirsGood":[],"tags":[],"country":"PK","link":"https://www.paraglidingearth.com/pgearth/index.php?site=16524"},{"id":"pe16581","name":"Ishkomen West","lat":36.3271,"lon":73.7847,"alt":4006,"dirs":[],"dirsGood":[],"tags":[],"country":"PK","link":"https://www.paraglidingearth.com/pgearth/index.php?site=16581"},{"id":"pe16582","name":"Shandur Pass","lat":36.1016,"lon":72.5459,"alt":4099,"dirs":[],"dirsGood":[],"tags":[],"country":"PK","link":"https://www.paraglidingearth.com/pgearth/index.php?site=16582"},{"id":"pe16591","name":"Chalt","lat":36.2983,"lon":74.266,"alt":3976,"dirs":[],"dirsGood":[],"tags":[],"country":"PK","link":"https://www.paraglidingearth.com/pgearth/index.php?site=16591"},{"id":"pe16594","name":"Bunji summer village","lat":35.6775,"lon":74.7189,"alt":3858,"dirs":[],"dirsGood":[],"tags":[],"country":"PK","link":"https://www.paraglidingearth.com/pgearth/index.php?site=16594"},{"id":"pe16614","name":"Phandur Lake South","lat":36.1569,"lon":72.9551,"alt":3185,"dirs":[],"dirsGood":[],"tags":[],"country":"PK","link":"https://www.paraglidingearth.com/pgearth/index.php?site=16614"},{"id":"pe16810","name":"spur above Bunji Jah","lat":35.6559,"lon":74.6903,"alt":3441,"dirs":[],"dirsGood":[],"tags":[],"country":"PK","link":"https://www.paraglidingearth.com/pgearth/index.php?site=16810"},{"id":"pe16946","name":"Tarbela Dam Darwaza","lat":34.0852,"lon":72.9486,"alt":638,"dirs":["E","SE","S","SW","W"],"dirsGood":["SE","S","SW"],"tags":["soaring"],"country":"PK","link":"https://www.paraglidingearth.com/pgearth/index.php?site=16946"},{"id":"pe17728","name":"Mubarak Village","lat":24.8578,"lon":66.6782,"alt":74,"dirs":["E","SE","S"],"dirsGood":["SE"],"tags":["xc","thermals","soaring","flatland","winch"],"country":"PK","link":"https://www.paraglidingearth.com/pgearth/index.php?site=17728"},{"id":"pe17967","name":"Mubarak Village II","lat":24.8533,"lon":66.6726,"alt":63,"dirs":["S","SW","W"],"dirsGood":["S","SW"],"tags":["thermals","soaring"],"country":"PK","link":"https://www.paraglidingearth.com/pgearth/index.php?site=17967"},{"id":"pe18801","name":"NFC-2 Winch Site","lat":31.3549,"lon":74.1496,"alt":206,"dirs":["N","NE","E","SE","S","SW","W","NW"],"dirsGood":[],"tags":["winch"],"country":"PK","link":"https://www.paraglidingearth.com/pgearth/index.php?site=18801"},{"id":"pe19228","name":"Lalazar Naran","lat":34.9155,"lon":73.758,"alt":3275,"dirs":[],"dirsGood":[],"tags":[],"country":"PK","link":"https://www.paraglidingearth.com/pgearth/index.php?site=19228"},{"id":"pe19532","name":"Ganj Ali Shah","lat":32.8131,"lon":73.1081,"alt":913,"dirs":["N","NE","NW"],"dirsGood":["N","NE"],"tags":["thermals","soaring"],"country":"PK","link":"https://www.paraglidingearth.com/pgearth/index.php?site=19532"},{"id":"pe19660","name":"Chinarkot","lat":34.0218,"lon":72.7763,"alt":1163,"dirs":["SE","S","SW"],"dirsGood":["SE","S","SW"],"tags":["xc","thermals","soaring"],"country":"PK","link":"https://www.paraglidingearth.com/pgearth/index.php?site=19660"},{"id":"pe22128","name":"Ghunda Shamshaki","lat":33.1438,"lon":71.3711,"alt":898,"dirs":[],"dirsGood":[],"tags":[],"country":"PK","link":"https://www.paraglidingearth.com/pgearth/index.php?site=22128"},{"id":"pe23244","name":"Laram","lat":34.7902,"lon":71.9601,"alt":2271,"dirs":["SE","S","SW"],"dirsGood":["SE","S","SW"],"tags":["xc","thermals","soaring"],"country":"PK","link":"https://www.paraglidingearth.com/pgearth/index.php?site=23244"},{"id":"pe23514","name":"Saran","lat":34.3816,"lon":73.5276,"alt":2363,"dirs":[],"dirsGood":[],"tags":["xc","thermals","soaring"],"country":"PK","link":"https://www.paraglidingearth.com/pgearth/index.php?site=23514"}]