[{"id":"pe11630","name":"Cubuy","lat":18.2554,"lon":-65.8514,"alt":530,"dirs":["E","SE","S"],"dirsGood":["SE","S"],"tags":["xc","thermals","soaring","flatland"],"country":"PR","link":"https://www.paraglidingearth.com/pgearth/index.php?site=11630"},{"id":"pe14508","name":"el farallon","lat":18.5086,"lon":-67.0513,"alt":72,"dirs":["N"],"dirsGood":["N"],"tags":["soaring"],"country":"PR","link":"https://www.paraglidingearth.com/pgearth/index.php?site=14508"},{"id":"pe15098","name":"Cubuy","lat":18.2538,"lon":-65.852,"alt":493,"dirs":[],"dirsGood":[],"tags":[],"country":"PR","link":"https://www.paraglidingearth.com/pgearth/index.php?site=15098"},{"id":"pe18841","name":"Morovis","lat":18.2961,"lon":-66.4461,"alt":409,"dirs":["N","NE","E"],"dirsGood":["NE","E"],"tags":["xc","thermals","soaring"],"country":"PR","link":"https://www.paraglidingearth.com/pgearth/index.php?site=18841"},{"id":"pe18842","name":"Rancho Guayama","lat":18.0042,"lon":-66.2125,"alt":198,"dirs":["SE","S","SW"],"dirsGood":["S"],"tags":["xc","thermals","soaring","flatland"],"country":"PR","link":"https://www.paraglidingearth.com/pgearth/index.php?site=18842"},{"id":"pe18844","name":"Salinas","lat":18.0547,"lon":-66.2254,"alt":551,"dirs":["SE","S","SW"],"dirsGood":["S"],"tags":["xc","thermals","soaring","flatland"],"country":"PR","link":"https://www.paraglidingearth.com/pgearth/index.php?site=18844"},{"id":"pe18845","name":"Caguas","lat":18.2674,"lon":-66.0264,"alt":256,"dirs":["S"],"dirsGood":["S"],"tags":["xc","thermals","soaring","flatland"],"country":"PR","link":"https://www.paraglidingearth.com/pgearth/index.php?site=18845"},{"id":"pe18846","name":"La casita","lat":18.2754,"lon":-65.9332,"alt":380,"dirs":["SE","S","SW"],"dirsGood":["S"],"tags":["xc","thermals","soaring","flatland"],"country":"PR","link":"https://www.paraglidingearth.com/pgearth/index.php?site=18846"},{"id":"pe18847","name":"Pajaros","lat":18.2132,"lon":-65.8334,"alt":209,"dirs":["N","NE","E"],"dirsGood":["NE"],"tags":["xc","thermals","soaring","flatland"],"country":"PR","link":"https://www.paraglidingearth.com/pgearth/index.php?site=18847"}]