[{"id":"pe7307","name":"Kiev paragliding club","lat":50.2611,"lon":30.529,"alt":140,"dirs":["N","NE","E","SE","S","SW","W","NW"],"dirsGood":["NE","E","SE","W"],"tags":["thermals","soaring","winch"],"country":"UA","link":"https://www.paraglidingearth.com/pgearth/index.php?site=7307"},{"id":"pe7399","name":"Foros","lat":44.4073,"lon":33.802,"alt":586,"dirs":["SE","S","SW","W"],"dirsGood":["S","SW"],"tags":["xc","thermals"],"country":"UA","link":"https://www.paraglidingearth.com/pgearth/index.php?site=7399"},{"id":"pe8273","name":"Polonina Rivna","lat":48.8005,"lon":22.8121,"alt":1453,"dirs":["N","NE","S","SW","W","NW"],"dirsGood":["N","NE","W","NW"],"tags":["xc","thermals","soaring"],"country":"UA","link":"https://www.paraglidingearth.com/pgearth/index.php?site=8273"},{"id":"pe8274","name":"Polonina Borzhava","lat":48.6472,"lon":23.2299,"alt":1589,"dirs":["N","NE","S","W","NW"],"dirsGood":["N","NE"],"tags":["xc","thermals","soaring"],"country":"UA","link":"https://www.paraglidingearth.com/pgearth/index.php?site=8274"},{"id":"pe9940","name":"Khodoseevka","lat":50.2613,"lon":30.53,"alt":129,"dirs":["NE","E","SE","SW","W","NW"],"dirsGood":["E","W"],"tags":["thermals","soaring"],"country":"UA","link":"https://www.paraglidingearth.com/pgearth/index.php?site=9940"},{"id":"pe9941","name":"Fasovaya","lat":50.2221,"lon":29.482,"alt":196,"dirs":["N","NE","E","SE","S","SW","W","NW"],"dirsGood":["NE","NW"],"tags":["thermals","soaring","flatland","winch"],"country":"UA","link":"https://www.paraglidingearth.com/pgearth/index.php?site=9941"},{"id":"pe9945","name":"Beregovoe","lat":44.9179,"lon":33.6139,"alt":15,"dirs":["N","NE","E","SE","SW","W","NW"],"dirsGood":["SW","W","NW"],"tags":["soaring"],"country":"UA","link":"https://www.paraglidingearth.com/pgearth/index.php?site=9945"},{"id":"pe9946","name":"Druzhnoe","lat":45.9182,"lon":34.3117,"alt":7,"dirs":["N","NE","E","SE","S","SW","W","NW"],"dirsGood":[],"tags":["soaring"],"country":"UA","link":"https://www.paraglidingearth.com/pgearth/index.php?site=9946"},{"id":"pe9947","name":"Kacha","lat":44.7636,"lon":33.5422,"alt":23,"dirs":["W"],"dirsGood":["W"],"tags":["soaring"],"country":"UA","link":"https://www.paraglidingearth.com/pgearth/index.php?site=9947"},{"id":"pe9948","name":"Oboronnoe","lat":44.5052,"lon":33.648,"alt":404,"dirs":["N","NW"],"dirsGood":["N","NW"],"tags":["thermals","soaring"],"country":"UA","link":"https://www.paraglidingearth.com/pgearth/index.php?site=9948"},{"id":"pe9952","name":"Bakota","lat":48.6084,"lon":26.9564,"alt":191,"dirs":["E","SE","S"],"dirsGood":["E","SE","S"],"tags":["thermals","soaring"],"country":"UA","link":"https://www.paraglidingearth.com/pgearth/index.php?site=9952"},{"id":"pe9953","name":"Ivane Zolote","lat":48.7153,"lon":25.6519,"alt":299,"dirs":[],"dirsGood":[],"tags":["thermals","soaring"],"country":"UA","link":"https://www.paraglidingearth.com/pgearth/index.php?site=9953"},{"id":"pe9954","name":"Zalischyky Klimuha","lat":48.6792,"lon":25.771,"alt":237,"dirs":["SE","S","SW"],"dirsGood":["SE","S","SW"],"tags":["thermals","soaring"],"country":"UA","link":"https://www.paraglidingearth.com/pgearth/index.php?site=9954"},{"id":"pe9955","name":"Veseloe","lat":44.8223,"lon":34.8694,"alt":11,"dirs":["SE","S","SW"],"dirsGood":["S"],"tags":["soaring"],"country":"UA","link":"https://www.paraglidingearth.com/pgearth/index.php?site=9955"},{"id":"pe9956","name":"Nagoriani","lat":48.4923,"lon":27.6035,"alt":90,"dirs":["S"],"dirsGood":["S"],"tags":["thermals","soaring"],"country":"UA","link":"https://www.paraglidingearth.com/pgearth/index.php?site=9956"},{"id":"pe9957","name":"Leninskoe","lat":51.4347,"lon":33.3375,"alt":131,"dirs":["S"],"dirsGood":["S"],"tags":["thermals","soaring"],"country":"UA","link":"https://www.paraglidingearth.com/pgearth/index.php?site=9957"},{"id":"pe9958","name":"Chervonyi Kut","lat":47.4083,"lon":30.45,"alt":41,"dirs":["NE","E"],"dirsGood":["NE","E"],"tags":["thermals","soaring"],"country":"UA","link":"https://www.paraglidingearth.com/pgearth/index.php?site=9958"},{"id":"pe9959","name":"Kalinovka","lat":46.8959,"lon":31.0062,"alt":43,"dirs":["N","NE","E","W","NW"],"dirsGood":["N","NE","E","W","NW"],"tags":["soaring"],"country":"UA","link":"https://www.paraglidingearth.com/pgearth/index.php?site=9959"},{"id":"pe9961","name":"Tash-Djorgan","lat":44.857,"lon":34.0797,"alt":520,"dirs":["S","SW"],"dirsGood":["S"],"tags":["xc","thermals","soaring","flatland"],"country":"UA","link":"https://www.paraglidingearth.com/pgearth/index.php?site=9961"},{"id":"pe9962","name":"Ternovka","lat":44.6,"lon":33.7208,"alt":356,"dirs":["SE","S","SW"],"dirsGood":["S"],"tags":["thermals","soaring"],"country":"UA","link":"https://www.paraglidingearth.com/pgearth/index.php?site=9962"},{"id":"pe9963","name":"Deleva","lat":48.9102,"lon":25.2071,"alt":312,"dirs":[],"dirsGood":[],"tags":["thermals","soaring"],"country":"UA","link":"https://www.paraglidingearth.com/pgearth/index.php?site=9963"},{"id":"pe9964","name":"Demshin","lat":48.6478,"lon":26.802,"alt":290,"dirs":[],"dirsGood":[],"tags":["thermals","soaring"],"country":"UA","link":"https://www.paraglidingearth.com/pgearth/index.php?site=9964"},{"id":"pe9965","name":"Khresty","lat":48.6798,"lon":25.6172,"alt":253,"dirs":[],"dirsGood":[],"tags":["thermals","soaring"],"country":"UA","link":"https://www.paraglidingearth.com/pgearth/index.php?site=9965"},{"id":"pe9966","name":"Kostryjivka","lat":48.6309,"lon":25.7312,"alt":280,"dirs":[],"dirsGood":[],"tags":["thermals","soaring"],"country":"UA","link":"https://www.paraglidingearth.com/pgearth/index.php?site=9966"},{"id":"pe9967","name":"Nejin","lat":51.0642,"lon":31.9247,"alt":118,"dirs":[],"dirsGood":[],"tags":["thermals","soaring"],"country":"UA","link":"https://www.paraglidingearth.com/pgearth/index.php?site=9967"},{"id":"pe9968","name":"Odayiv","lat":48.8607,"lon":25.1587,"alt":282,"dirs":[],"dirsGood":[],"tags":["thermals","soaring"],"country":"UA","link":"https://www.paraglidingearth.com/pgearth/index.php?site=9968"},{"id":"pe9969","name":"Odessa","lat":46.47,"lon":30.7,"alt":45,"dirs":[],"dirsGood":[],"tags":["thermals","soaring"],"country":"UA","link":"https://www.paraglidingearth.com/pgearth/index.php?site=9969"},{"id":"pe9972","name":"VelikiyVerh","lat":48.6333,"lon":23.2167,"alt":1486,"dirs":[],"dirsGood":[],"tags":["thermals","soaring"],"country":"UA","link":"https://www.paraglidingearth.com/pgearth/index.php?site=9972"},{"id":"pe9973","name":"Agarmish","lat":45.0526,"lon":35.0781,"alt":457,"dirs":["N","NE","NW"],"dirsGood":["N"],"tags":["thermals","soaring"],"country":"UA","link":"https://www.paraglidingearth.com/pgearth/index.php?site=9973"},{"id":"pe9974","name":"Borkaya","lat":45.0542,"lon":34.9467,"alt":350,"dirs":["SE","S","SW"],"dirsGood":["SE","S"],"tags":["thermals","soaring"],"country":"UA","link":"https://www.paraglidingearth.com/pgearth/index.php?site=9974"},{"id":"pe9976","name":"Demerdzhi","lat":44.7496,"lon":34.4135,"alt":1160,"dirs":["SE","S","SW"],"dirsGood":["SE","SW"],"tags":["xc","thermals","soaring","flatland"],"country":"UA","link":"https://www.paraglidingearth.com/pgearth/index.php?site=9976"},{"id":"pe9977","name":"Tihaya buhta","lat":44.9708,"lon":35.3084,"alt":18,"dirs":[],"dirsGood":[],"tags":["thermals","soaring"],"country":"UA","link":"https://www.paraglidingearth.com/pgearth/index.php?site=9977"},{"id":"pe9978","name":"Rybachye","lat":44.774,"lon":34.6064,"alt":58,"dirs":["N","NE","E","SE","S","SW","W","NW"],"dirsGood":[],"tags":["thermals","soaring"],"country":"UA","link":"https://www.paraglidingearth.com/pgearth/index.php?site=9978"},{"id":"pe10408","name":"Shelenkov school","lat":45.0182,"lon":35.2368,"alt":245,"dirs":[],"dirsGood":[],"tags":["xc","thermals","soaring","flatland","winch"],"country":"UA","link":"https://www.paraglidingearth.com/pgearth/index.php?site=10408"},{"id":"pe10432","name":"Kashpero-Nikolaevka","lat":47.3624,"lon":32.2027,"alt":55,"dirs":["N","NE","E","SE"],"dirsGood":["N","NE","E","SE"],"tags":["thermals","soaring"],"country":"UA","link":"https://www.paraglidingearth.com/pgearth/index.php?site=10432"},{"id":"pe10433","name":"Kozirka","lat":46.8001,"lon":31.8757,"alt":26,"dirs":["E","SE"],"dirsGood":["E","SE"],"tags":["thermals","soaring","winch"],"country":"UA","link":"https://www.paraglidingearth.com/pgearth/index.php?site=10433"},{"id":"pe10434","name":"Ochakov","lat":46.6443,"lon":31.596,"alt":30,"dirs":["SE"],"dirsGood":["SE"],"tags":["soaring"],"country":"UA","link":"https://www.paraglidingearth.com/pgearth/index.php?site=10434"},{"id":"pe10435","name":"Luparevo","lat":46.6306,"lon":32.0231,"alt":8,"dirs":["SW"],"dirsGood":["SW"],"tags":["thermals","soaring"],"country":"UA","link":"https://www.paraglidingearth.com/pgearth/index.php?site=10435"},{"id":"pe10436","name":"Morskoe","lat":46.6111,"lon":31.2626,"alt":11,"dirs":["SE","S"],"dirsGood":["SE","S"],"tags":["soaring"],"country":"UA","link":"https://www.paraglidingearth.com/pgearth/index.php?site=10436"},{"id":"pe10437","name":"Ribakovka","lat":46.61,"lon":31.3053,"alt":21,"dirs":["S","SW"],"dirsGood":["S","SW"],"tags":["soaring"],"country":"UA","link":"https://www.paraglidingearth.com/pgearth/index.php?site=10437"},{"id":"pe10438","name":"Voznesensk","lat":47.5291,"lon":31.1859,"alt":55,"dirs":["N","NE","E","SE","NW"],"dirsGood":["N","NE","E","SE","NW"],"tags":["thermals","soaring","winch"],"country":"UA","link":"https://www.paraglidingearth.com/pgearth/index.php?site=10438"},{"id":"pe10439","name":"Koblevo","lat":46.6296,"lon":31.2273,"alt":35,"dirs":["SW","W"],"dirsGood":["SW","W"],"tags":["thermals","soaring","winch"],"country":"UA","link":"https://www.paraglidingearth.com/pgearth/index.php?site=10439"},{"id":"pe10440","name":"Kapustino","lat":47.1139,"lon":32.032,"alt":28,"dirs":["NE","E","W","NW"],"dirsGood":["NE","E","W","NW"],"tags":["soaring","winch"],"country":"UA","link":"https://www.paraglidingearth.com/pgearth/index.php?site=10440"},{"id":"pe10441","name":"Chernomorka","lat":46.6273,"lon":31.4634,"alt":9,"dirs":["S","SW"],"dirsGood":["S","SW"],"tags":["soaring"],"country":"UA","link":"https://www.paraglidingearth.com/pgearth/index.php?site=10441"},{"id":"pe10442","name":"Dneprovskoe","lat":46.6348,"lon":31.8769,"alt":38,"dirs":["SE"],"dirsGood":["SE"],"tags":["soaring"],"country":"UA","link":"https://www.paraglidingearth.com/pgearth/index.php?site=10442"},{"id":"pe10443","name":"Katalino","lat":46.7799,"lon":31.871,"alt":43,"dirs":["E"],"dirsGood":["E"],"tags":["soaring"],"country":"UA","link":"https://www.paraglidingearth.com/pgearth/index.php?site=10443"},{"id":"pe10610","name":"Ivanovka","lat":46.6452,"lon":31.6783,"alt":15,"dirs":["S","SW"],"dirsGood":["S","SW"],"tags":["soaring"],"country":"UA","link":"https://www.paraglidingearth.com/pgearth/index.php?site=10610"},{"id":"pe10611","name":"Stanislav","lat":46.5722,"lon":32.1315,"alt":28,"dirs":["SW","W"],"dirsGood":["SW","W"],"tags":["soaring"],"country":"UA","link":"https://www.paraglidingearth.com/pgearth/index.php?site=10611"},{"id":"pe10612","name":"Konstantinovka","lat":47.0956,"lon":31.9131,"alt":33,"dirs":["SW","W"],"dirsGood":["SW","W"],"tags":["soaring"],"country":"UA","link":"https://www.paraglidingearth.com/pgearth/index.php?site=10612"},{"id":"pe10613","name":"Solyanie","lat":47.0081,"lon":31.9882,"alt":9,"dirs":["SW","W"],"dirsGood":["SW","W"],"tags":["soaring"],"country":"UA","link":"https://www.paraglidingearth.com/pgearth/index.php?site=10613"},{"id":"pe10614","name":"Neftebaza","lat":46.9291,"lon":32.0242,"alt":-4,"dirs":["SW","W"],"dirsGood":["SW","W"],"tags":["soaring"],"country":"UA","link":"https://www.paraglidingearth.com/pgearth/index.php?site=10614"},{"id":"pe10633","name":"Verkhnesadovoe","lat":44.695,"lon":33.7368,"alt":234,"dirs":["SE","S"],"dirsGood":["SE","S"],"tags":["xc","thermals","soaring","flatland"],"country":"UA","link":"https://www.paraglidingearth.com/pgearth/index.php?site=10633"},{"id":"pe10639","name":"Strogonovka","lat":44.9529,"lon":34.1927,"alt":399,"dirs":["S","SW","W"],"dirsGood":["SW","W"],"tags":["xc","thermals","soaring","flatland"],"country":"UA","link":"https://www.paraglidingearth.com/pgearth/index.php?site=10639"},{"id":"pe10771","name":"Agarmysh","lat":45.0404,"lon":35.056,"alt":695,"dirs":["N","NW"],"dirsGood":["NW"],"tags":["xc","thermals","soaring","flatland"],"country":"UA","link":"https://www.paraglidingearth.com/pgearth/index.php?site=10771"},{"id":"pe11399","name":"Aromatnoe","lat":44.8245,"lon":33.8987,"alt":326,"dirs":["E","SE"],"dirsGood":["E"],"tags":["thermals","soaring"],"country":"UA","link":"https://www.paraglidingearth.com/pgearth/index.php?site=11399"},{"id":"pe11427","name":"Cherkasskaya Lozovaya","lat":50.1125,"lon":36.2467,"alt":190,"dirs":["E","SE","S","SW","W"],"dirsGood":["SE","S","SW"],"tags":["thermals","soaring"],"country":"UA","link":"https://www.paraglidingearth.com/pgearth/index.php?site=11427"},{"id":"pe11463","name":"Halich-Buruk","lat":45.0086,"lon":34.6431,"alt":383,"dirs":["NE","E","SE"],"dirsGood":["E"],"tags":["xc","thermals","soaring","flatland"],"country":"UA","link":"https://www.paraglidingearth.com/pgearth/index.php?site=11463"},{"id":"pe11787","name":"Aylyanma-Kai","lat":45.0942,"lon":34.6838,"alt":281,"dirs":[],"dirsGood":[],"tags":[],"country":"UA","link":"https://www.paraglidingearth.com/pgearth/index.php?site=11787"},{"id":"pe11887","name":"Towing Voskodavy","lat":50.6487,"lon":26.6782,"alt":227,"dirs":["NE","E","SE","SW","W","NW"],"dirsGood":["E","W"],"tags":["flatland","winch"],"country":"UA","link":"https://www.paraglidingearth.com/pgearth/index.php?site=11887"},{"id":"pe12329","name":"Dovjik","lat":50.1965,"lon":35.8765,"alt":199,"dirs":[],"dirsGood":[],"tags":[],"country":"UA","link":"https://www.paraglidingearth.com/pgearth/index.php?site=12329"},{"id":"pe12369","name":"Stonehenge","lat":50.1253,"lon":36.0557,"alt":177,"dirs":[],"dirsGood":[],"tags":[],"country":"UA","link":"https://www.paraglidingearth.com/pgearth/index.php?site=12369"},{"id":"pe12718","name":"Bliznica","lat":48.2165,"lon":24.2342,"alt":1802,"dirs":[],"dirsGood":[],"tags":[],"country":"UA","link":"https://www.paraglidingearth.com/pgearth/index.php?site=12718"},{"id":"pe12719","name":"Lukvycja","lat":48.7426,"lon":24.239,"alt":769,"dirs":[],"dirsGood":[],"tags":[],"country":"UA","link":"https://www.paraglidingearth.com/pgearth/index.php?site=12719"},{"id":"pe12720","name":"Apetska mount","lat":48.1804,"lon":23.9961,"alt":1494,"dirs":[],"dirsGood":[],"tags":[],"country":"UA","link":"https://www.paraglidingearth.com/pgearth/index.php?site=12720"},{"id":"pe12721","name":"Kornin","lat":50.5568,"lon":26.3222,"alt":209,"dirs":[],"dirsGood":[],"tags":[],"country":"UA","link":"https://www.paraglidingearth.com/pgearth/index.php?site=12721"},{"id":"pe12722","name":"Turn to Motovilovksa","lat":50.158,"lon":30.2118,"alt":200,"dirs":[],"dirsGood":[],"tags":[],"country":"UA","link":"https://www.paraglidingearth.com/pgearth/index.php?site=12722"},{"id":"pe12723","name":"Lozovay","lat":48.8528,"lon":36.3786,"alt":178,"dirs":[],"dirsGood":[],"tags":[],"country":"UA","link":"https://www.paraglidingearth.com/pgearth/index.php?site=12723"},{"id":"pe12879","name":"Velyka Krucha","lat":50.1533,"lon":32.5247,"alt":110,"dirs":[],"dirsGood":[],"tags":[],"country":"UA","link":"https://www.paraglidingearth.com/pgearth/index.php?site=12879"},{"id":"pe13134","name":"Gimba mnt.","lat":48.6351,"lon":23.2683,"alt":1425,"dirs":[],"dirsGood":[],"tags":[],"country":"UA","link":"https://www.paraglidingearth.com/pgearth/index.php?site=13134"},{"id":"pe13135","name":"Pyzhivka","lat":48.5893,"lon":27.1696,"alt":197,"dirs":[],"dirsGood":[],"tags":[],"country":"UA","link":"https://www.paraglidingearth.com/pgearth/index.php?site=13135"},{"id":"pe13136","name":"Otrokiv","lat":48.8099,"lon":27.1091,"alt":191,"dirs":[],"dirsGood":[],"tags":[],"country":"UA","link":"https://www.paraglidingearth.com/pgearth/index.php?site=13136"},{"id":"pe13234","name":"Stufchyntsi","lat":49.4831,"lon":27.1401,"alt":306,"dirs":[],"dirsGood":[],"tags":[],"country":"UA","link":"https://www.paraglidingearth.com/pgearth/index.php?site=13234"},{"id":"pe13517","name":"Fasova","lat":50.3607,"lon":29.7248,"alt":184,"dirs":[],"dirsGood":[],"tags":[],"country":"UA","link":"https://www.paraglidingearth.com/pgearth/index.php?site=13517"},{"id":"pe13612","name":"Fasova (NE)","lat":50.3506,"lon":29.7743,"alt":195,"dirs":[],"dirsGood":[],"tags":[],"country":"UA","link":"https://www.paraglidingearth.com/pgearth/index.php?site=13612"},{"id":"pe13993","name":"Karachun","lat":48.8241,"lon":37.5196,"alt":117,"dirs":["N","NE"],"dirsGood":["NE"],"tags":["thermals","soaring","flatland"],"country":"UA","link":"https://www.paraglidingearth.com/pgearth/index.php?site=13993"},{"id":"pe14079","name":"Trostyan mnt.","lat":48.8556,"lon":23.393,"alt":1162,"dirs":[],"dirsGood":[],"tags":[],"country":"UA","link":"https://www.paraglidingearth.com/pgearth/index.php?site=14079"},{"id":"pe14103","name":"Karachun","lat":50.052,"lon":36.2722,"alt":172,"dirs":[],"dirsGood":[],"tags":[],"country":"UA","link":"https://www.paraglidingearth.com/pgearth/index.php?site=14103"},{"id":"pe14104","name":"Travyanskoe","lat":50.2557,"lon":36.3865,"alt":140,"dirs":[],"dirsGood":[],"tags":[],"country":"UA","link":"https://www.paraglidingearth.com/pgearth/index.php?site=14104"},{"id":"pe14738","name":"Byshev","lat":50.243,"lon":29.8594,"alt":177,"dirs":[],"dirsGood":[],"tags":[],"country":"UA","link":"https://www.paraglidingearth.com/pgearth/index.php?site=14738"},{"id":"pe14755","name":"Halich-Buruk2","lat":45.0162,"lon":34.6281,"alt":318,"dirs":["NE","E"],"dirsGood":["E"],"tags":["xc","thermals","soaring","flatland"],"country":"UA","link":"https://www.paraglidingearth.com/pgearth/index.php?site=14755"},{"id":"pe14846","name":"Hodosiyevka mountain","lat":50.2613,"lon":30.5294,"alt":136,"dirs":["N","NE","E","SE","S","SW","W","NW"],"dirsGood":[],"tags":["thermals","soaring","winch"],"country":"UA","link":"https://www.paraglidingearth.com/pgearth/index.php?site=14846"},{"id":"pe14892","name":"Dovjik","lat":50.1773,"lon":35.8423,"alt":162,"dirs":[],"dirsGood":[],"tags":[],"country":"UA","link":"https://www.paraglidingearth.com/pgearth/index.php?site=14892"},{"id":"pe15155","name":"Osoevka","lat":50.8518,"lon":35.1845,"alt":216,"dirs":[],"dirsGood":[],"tags":[],"country":"UA","link":"https://www.paraglidingearth.com/pgearth/index.php?site=15155"},{"id":"pe15156","name":"Berdichev","lat":49.8803,"lon":28.4962,"alt":266,"dirs":["N","NE","E","S","SW","W"],"dirsGood":["N","E","S","W"],"tags":["thermals","flatland","winch"],"country":"UA","link":"https://www.paraglidingearth.com/pgearth/index.php?site=15156"},{"id":"pe15157","name":"Bezruki","lat":50.1962,"lon":36.0872,"alt":166,"dirs":[],"dirsGood":[],"tags":[],"country":"UA","link":"https://www.paraglidingearth.com/pgearth/index.php?site=15157"},{"id":"pe15160","name":"Krasnopolie","lat":50.7439,"lon":35.2069,"alt":222,"dirs":[],"dirsGood":[],"tags":[],"country":"UA","link":"https://www.paraglidingearth.com/pgearth/index.php?site=15160"},{"id":"pe15162","name":"Borkaya","lat":45.0963,"lon":34.9199,"alt":186,"dirs":[],"dirsGood":[],"tags":[],"country":"UA","link":"https://www.paraglidingearth.com/pgearth/index.php?site=15162"},{"id":"pe15231","name":"Gimba mnt.","lat":48.6019,"lon":23.3037,"alt":1313,"dirs":[],"dirsGood":[],"tags":[],"country":"UA","link":"https://www.paraglidingearth.com/pgearth/index.php?site=15231"},{"id":"pe15305","name":"Kuyalnik","lat":46.5829,"lon":30.7162,"alt":42,"dirs":[],"dirsGood":[],"tags":[],"country":"UA","link":"https://www.paraglidingearth.com/pgearth/index.php?site=15305"},{"id":"pe15306","name":"Lisovi Grinivtsy","lat":49.4917,"lon":26.9863,"alt":365,"dirs":[],"dirsGood":[],"tags":[],"country":"UA","link":"https://www.paraglidingearth.com/pgearth/index.php?site=15306"},{"id":"pe15441","name":"Stig - Dragobrat","lat":48.2491,"lon":24.2243,"alt":1640,"dirs":[],"dirsGood":[],"tags":[],"country":"UA","link":"https://www.paraglidingearth.com/pgearth/index.php?site=15441"},{"id":"pe15442","name":"nord takeOFF","lat":44.5378,"lon":34.099,"alt":1307,"dirs":[],"dirsGood":[],"tags":[],"country":"UA","link":"https://www.paraglidingearth.com/pgearth/index.php?site=15442"},{"id":"pe15515","name":"Vetrovka (Fasova)","lat":50.3054,"lon":29.8213,"alt":188,"dirs":[],"dirsGood":[],"tags":[],"country":"UA","link":"https://www.paraglidingearth.com/pgearth/index.php?site=15515"},{"id":"pe16027","name":"cape Meganom","lat":44.8062,"lon":35.0739,"alt":331,"dirs":["N","NE","E","SE","S","SW","W","NW"],"dirsGood":["E","SE","S","SW","W","NW"],"tags":["xc","thermals","soaring"],"country":"UA","link":"https://www.paraglidingearth.com/pgearth/index.php?site=16027"},{"id":"pe16083","name":"Zolochiv","lat":49.8125,"lon":24.917,"alt":273,"dirs":[],"dirsGood":[],"tags":["soaring","flatland"],"country":"UA","link":"https://www.paraglidingearth.com/pgearth/index.php?site=16083"},{"id":"pe16098","name":"PG brizz","lat":46.8364,"lon":36.9394,"alt":20,"dirs":["E","SE"],"dirsGood":["E","SE"],"tags":["soaring"],"country":"UA","link":"https://www.paraglidingearth.com/pgearth/index.php?site=16098"},{"id":"pe16707","name":"Blahodatnoe","lat":47.8961,"lon":38.5222,"alt":69,"dirs":["N","SE","S","SW","NW"],"dirsGood":["N","S"],"tags":["thermals","soaring","flatland"],"country":"UA","link":"https://www.paraglidingearth.com/pgearth/index.php?site=16707"},{"id":"pe16709","name":"Sladkoe","lat":47.7896,"lon":37.4139,"alt":184,"dirs":["NE","E","SE","SW","W","NW"],"dirsGood":["E","W"],"tags":["flatland","winch"],"country":"UA","link":"https://www.paraglidingearth.com/pgearth/index.php?site=16709"},{"id":"pe16710","name":"Mospine","lat":47.9068,"lon":38.0539,"alt":195,"dirs":["E","W"],"dirsGood":["E","W"],"tags":["xc","flatland","winch"],"country":"UA","link":"https://www.paraglidingearth.com/pgearth/index.php?site=16710"},{"id":"pe16994","name":"Pikuj","lat":48.8742,"lon":22.9691,"alt":1226,"dirs":[],"dirsGood":[],"tags":[],"country":"UA","link":"https://www.paraglidingearth.com/pgearth/index.php?site=16994"},{"id":"pe17118","name":"Spasskoe","lat":48.6553,"lon":35.0209,"alt":105,"dirs":["N"],"dirsGood":["N"],"tags":[],"country":"UA","link":"https://www.paraglidingearth.com/pgearth/index.php?site=17118"},{"id":"pe17471","name":"Malaya Volcha","lat":50.3762,"lon":37.2952,"alt":157,"dirs":["SE","S"],"dirsGood":["SE","S"],"tags":[],"country":"UA","link":"https://www.paraglidingearth.com/pgearth/index.php?site=17471"},{"id":"pe18101","name":"Kreminne","lat":48.4779,"lon":27.6035,"alt":204,"dirs":["W","NW"],"dirsGood":["NW"],"tags":["thermals","soaring","flatland"],"country":"UA","link":"https://www.paraglidingearth.com/pgearth/index.php?site=18101"},{"id":"pe18111","name":"Kozliv","lat":48.4972,"lon":27.5136,"alt":182,"dirs":["SW","W"],"dirsGood":["SW"],"tags":["thermals","flatland"],"country":"UA","link":"https://www.paraglidingearth.com/pgearth/index.php?site=18111"},{"id":"pe18169","name":"Tsupivka","lat":50.2595,"lon":36.1526,"alt":156,"dirs":["NE","E","SE"],"dirsGood":["E"],"tags":[],"country":"UA","link":"https://www.paraglidingearth.com/pgearth/index.php?site=18169"},{"id":"pe18780","name":"Nadbugskoe","lat":47.0012,"lon":31.8593,"alt":24,"dirs":["NE","E"],"dirsGood":["NE","E"],"tags":["soaring","winch"],"country":"UA","link":"https://www.paraglidingearth.com/pgearth/index.php?site=18780"},{"id":"pe18873","name":"Hudlevo","lat":48.5987,"lon":22.4965,"alt":472,"dirs":["SE","S","SW"],"dirsGood":["SE","S","SW"],"tags":["thermals","soaring"],"country":"UA","link":"https://www.paraglidingearth.com/pgearth/index.php?site=18873"},{"id":"pe18875","name":"Shopki","lat":49.7397,"lon":24.5203,"alt":345,"dirs":["SW","W","NW"],"dirsGood":["W"],"tags":["thermals","soaring"],"country":"UA","link":"https://www.paraglidingearth.com/pgearth/index.php?site=18875"},{"id":"pe18876","name":"Lagodiv","lat":49.7246,"lon":24.4978,"alt":341,"dirs":["N","NE","NW"],"dirsGood":["N"],"tags":["thermals","soaring"],"country":"UA","link":"https://www.paraglidingearth.com/pgearth/index.php?site=18876"},{"id":"pe19467","name":"Balovnoe","lat":47.0629,"lon":31.8982,"alt":23,"dirs":["NW"],"dirsGood":["NW"],"tags":[],"country":"UA","link":"https://www.paraglidingearth.com/pgearth/index.php?site=19467"},{"id":"pe19468","name":"Konstantinovka 2","lat":47.1074,"lon":31.9023,"alt":20,"dirs":["SW"],"dirsGood":["SW"],"tags":["soaring"],"country":"UA","link":"https://www.paraglidingearth.com/pgearth/index.php?site=19468"},{"id":"pe19534","name":"Luhoviki (uncle Tolya's North)","lat":50.2562,"lon":32.7953,"alt":151,"dirs":["N","NE"],"dirsGood":["N"],"tags":["thermals","flatland","winch"],"country":"UA","link":"https://www.paraglidingearth.com/pgearth/index.php?site=19534"},{"id":"pe19589","name":"Kremenets (Sokolyna Gora)","lat":50.0619,"lon":25.6362,"alt":364,"dirs":[],"dirsGood":[],"tags":["thermals","soaring","flatland"],"country":"UA","link":"https://www.paraglidingearth.com/pgearth/index.php?site=19589"},{"id":"pe19592","name":"Roksolany","lat":46.159,"lon":30.4821,"alt":38,"dirs":["SW"],"dirsGood":["SW"],"tags":["soaring"],"country":"UA","link":"https://www.paraglidingearth.com/pgearth/index.php?site=19592"},{"id":"pe19629","name":"Sursko-Mikhailovka","lat":48.269,"lon":34.6998,"alt":87,"dirs":["N","NE","E"],"dirsGood":["N","NE","E"],"tags":[],"country":"UA","link":"https://www.paraglidingearth.com/pgearth/index.php?site=19629"},{"id":"pe19630","name":"Mlinok","lat":48.8705,"lon":33.6446,"alt":55,"dirs":["SW","W","NW"],"dirsGood":["SW","W","NW"],"tags":["winch"],"country":"UA","link":"https://www.paraglidingearth.com/pgearth/index.php?site=19630"},{"id":"pe19687","name":"Kapulovka","lat":47.5324,"lon":34.2131,"alt":49,"dirs":["S","SW"],"dirsGood":["S","SW"],"tags":["soaring"],"country":"UA","link":"https://www.paraglidingearth.com/pgearth/index.php?site=19687"},{"id":"pe19720","name":"Zmeinka","lat":44.8499,"lon":34.0535,"alt":475,"dirs":["SE","S"],"dirsGood":["S"],"tags":["xc","thermals","soaring"],"country":"UA","link":"https://www.paraglidingearth.com/pgearth/index.php?site=19720"},{"id":"pe19721","name":"Laspi","lat":44.4286,"lon":33.7109,"alt":296,"dirs":["S","SW"],"dirsGood":["S"],"tags":["thermals","soaring"],"country":"UA","link":"https://www.paraglidingearth.com/pgearth/index.php?site=19721"},{"id":"pe19722","name":"Fiolent SE-SEE","lat":44.5056,"lon":33.4964,"alt":140,"dirs":["E","SE"],"dirsGood":["SE"],"tags":["thermals","soaring"],"country":"UA","link":"https://www.paraglidingearth.com/pgearth/index.php?site=19722"},{"id":"pe19723","name":"Fiolent SSW-S-SSE - English please!!","lat":44.5064,"lon":33.5029,"alt":172,"dirs":["SE","S","SW"],"dirsGood":["S"],"tags":["thermals","soaring"],"country":"UA","link":"https://www.paraglidingearth.com/pgearth/index.php?site=19723"},{"id":"pe19724","name":"Pozharskoe","lat":44.9227,"lon":33.8708,"alt":195,"dirs":["N","NE","E"],"dirsGood":["NE"],"tags":["thermals","soaring"],"country":"UA","link":"https://www.paraglidingearth.com/pgearth/index.php?site=19724"},{"id":"pe19727","name":"Irita-Kaya","lat":44.5341,"lon":33.8863,"alt":733,"dirs":["N","NE"],"dirsGood":["N","NE"],"tags":["thermals","soaring"],"country":"UA","link":"https://www.paraglidingearth.com/pgearth/index.php?site=19727"},{"id":"pe19733","name":"Mangup","lat":44.5907,"lon":33.8056,"alt":555,"dirs":["S"],"dirsGood":[],"tags":["thermals","soaring"],"country":"UA","link":"https://www.paraglidingearth.com/pgearth/index.php?site=19733"},{"id":"pe21441","name":"Klemuha","lat":45.0125,"lon":35.2448,"alt":231,"dirs":["S","SW"],"dirsGood":["S","SW"],"tags":[],"country":"UA","link":"https://www.paraglidingearth.com/pgearth/index.php?site=21441"},{"id":"pe21442","name":"Nord Side","lat":44.6372,"lon":33.5242,"alt":36,"dirs":[],"dirsGood":[],"tags":["soaring"],"country":"UA","link":"https://www.paraglidingearth.com/pgearth/index.php?site=21442"},{"id":"pe21751","name":"Bukhta Koktebel’ Pograntsy","lat":44.9698,"lon":35.2757,"alt":30,"dirs":["S"],"dirsGood":["S"],"tags":["soaring"],"country":"UA","link":"https://www.paraglidingearth.com/pgearth/index.php?site=21751"},{"id":"pe21916","name":"Tas-Tao (Mramornoe)","lat":44.8305,"lon":34.2817,"alt":719,"dirs":["N","NE","NW"],"dirsGood":["N","NW"],"tags":["xc","thermals","soaring"],"country":"UA","link":"https://www.paraglidingearth.com/pgearth/index.php?site=21916"},{"id":"pe21917","name":"Kalendy-Bair (Podgornoe)","lat":44.4389,"lon":33.8308,"alt":711,"dirs":["N","NE","NW"],"dirsGood":["N","NW"],"tags":["xc","thermals","soaring"],"country":"UA","link":"https://www.paraglidingearth.com/pgearth/index.php?site=21917"},{"id":"pe22327","name":"Vinogradovo Chorna Gora","lat":48.1383,"lon":23.0767,"alt":315,"dirs":[],"dirsGood":[],"tags":["thermals","soaring"],"country":"UA","link":"https://www.paraglidingearth.com/pgearth/index.php?site=22327"},{"id":"pe22721","name":"novograd","lat":50.5471,"lon":27.6231,"alt":230,"dirs":[],"dirsGood":[],"tags":["soaring"],"country":"UA","link":"https://www.paraglidingearth.com/pgearth/index.php?site=22721"},{"id":"pe22797","name":"Kuybishevo (Kullu-Kaja)","lat":44.6497,"lon":33.8583,"alt":380,"dirs":["SE","S","SW"],"dirsGood":["SE","S"],"tags":["xc","thermals","soaring","flatland"],"country":"UA","link":"https://www.paraglidingearth.com/pgearth/index.php?site=22797"}]