[{"id":"pe7610","name":"Placivel","lat":10.3438,"lon":-67.318,"alt":1483,"dirs":["E","SE","SW","W"],"dirsGood":["E","SE","SW","W"],"tags":["thermals","soaring"],"country":"VE","link":"https://www.paraglidingearth.com/pgearth/index.php?site=7610"},{"id":"pe9848","name":"El Olimpo","lat":9.22317,"lon":-70.6725,"alt":1406,"dirs":["NW"],"dirsGood":["NW"],"tags":["xc"],"country":"VE","link":"https://www.paraglidingearth.com/pgearth/index.php?site=9848"},{"id":"pe10340","name":"El Morro","lat":10.2301,"lon":-64.6988,"alt":102,"dirs":["NE","E","SW","W","NW"],"dirsGood":["E","W"],"tags":["soaring"],"country":"VE","link":"https://www.paraglidingearth.com/pgearth/index.php?site=10340"},{"id":"pe10341","name":"Los Altos","lat":10.2237,"lon":-64.5068,"alt":703,"dirs":["N","NE","NW"],"dirsGood":["N"],"tags":["xc"],"country":"VE","link":"https://www.paraglidingearth.com/pgearth/index.php?site=10341"},{"id":"pe10342","name":"El Frances","lat":10.0775,"lon":-63.4576,"alt":1018,"dirs":["NE","E","SE","S"],"dirsGood":["E","S"],"tags":["xc","thermals","soaring","flatland"],"country":"VE","link":"https://www.paraglidingearth.com/pgearth/index.php?site=10342"},{"id":"pe10777","name":"Loma de Los Angeles","lat":8.5804,"lon":-71.2171,"alt":1911,"dirs":["SE","S","SW","W"],"dirsGood":["SE","S"],"tags":["thermals","soaring"],"country":"VE","link":"https://www.paraglidingearth.com/pgearth/index.php?site=10777"},{"id":"pe10874","name":"Los Estoraques","lat":7.6158,"lon":-72.0643,"alt":967,"dirs":["E","SE","S"],"dirsGood":["E","SE"],"tags":["thermals","soaring"],"country":"VE","link":"https://www.paraglidingearth.com/pgearth/index.php?site=10874"},{"id":"pe12018","name":"Torococo","lat":9.59435,"lon":-70.4026,"alt":799,"dirs":[],"dirsGood":[],"tags":["flatland"],"country":"VE","link":"https://www.paraglidingearth.com/pgearth/index.php?site=12018"},{"id":"pe12030","name":"Chirgua","lat":10.2713,"lon":-68.2249,"alt":1483,"dirs":[],"dirsGood":[],"tags":[],"country":"VE","link":"https://www.paraglidingearth.com/pgearth/index.php?site=12030"},{"id":"pe12474","name":"Uribante Caparo","lat":7.95038,"lon":-71.7246,"alt":1177,"dirs":[],"dirsGood":[],"tags":[],"country":"VE","link":"https://www.paraglidingearth.com/pgearth/index.php?site=12474"},{"id":"pe12774","name":"LA AGUADA","lat":8.56377,"lon":-71.0958,"alt":3185,"dirs":[],"dirsGood":[],"tags":[],"country":"VE","link":"https://www.paraglidingearth.com/pgearth/index.php?site=12774"},{"id":"pe12797","name":"Antena de Potrerito","lat":9.99458,"lon":-67.4517,"alt":925,"dirs":[],"dirsGood":[],"tags":[],"country":"VE","link":"https://www.paraglidingearth.com/pgearth/index.php?site=12797"},{"id":"pe12845","name":"Loma Lisa","lat":10.0929,"lon":-67.3808,"alt":607,"dirs":[],"dirsGood":[],"tags":[],"country":"VE","link":"https://www.paraglidingearth.com/pgearth/index.php?site=12845"},{"id":"pe12877","name":"caripe arbolitos","lat":10.2163,"lon":-63.5345,"alt":1253,"dirs":[],"dirsGood":[],"tags":[],"country":"VE","link":"https://www.paraglidingearth.com/pgearth/index.php?site=12877"},{"id":"pe13014","name":"Humocaro","lat":9.69323,"lon":-69.9755,"alt":1896,"dirs":[],"dirsGood":[],"tags":[],"country":"VE","link":"https://www.paraglidingearth.com/pgearth/index.php?site=13014"},{"id":"pe13164","name":"El Jarillo","lat":10.3621,"lon":-67.1848,"alt":1796,"dirs":["NE","E","SE","S","SW","W"],"dirsGood":["NE","E","SE","S","SW","W"],"tags":["xc","thermals","soaring"],"country":"VE","link":"https://www.paraglidingearth.com/pgearth/index.php?site=13164"},{"id":"pe13441","name":"Jiraquito Norte","lat":10.1016,"lon":-68.5403,"alt":1191,"dirs":[],"dirsGood":[],"tags":[],"country":"VE","link":"https://www.paraglidingearth.com/pgearth/index.php?site=13441"},{"id":"pe13451","name":"Turen","lat":9.10182,"lon":-69.0325,"alt":95,"dirs":["N","NE","E","SE"],"dirsGood":["E","SE"],"tags":["xc","thermals","winch"],"country":"VE","link":"https://www.paraglidingearth.com/pgearth/index.php?site=13451"},{"id":"pe13462","name":"caripe","lat":10.1381,"lon":-63.5755,"alt":1111,"dirs":[],"dirsGood":[],"tags":[],"country":"VE","link":"https://www.paraglidingearth.com/pgearth/index.php?site=13462"},{"id":"pe13478","name":"Loma Lisa","lat":10.178,"lon":-67.2724,"alt":1196,"dirs":[],"dirsGood":[],"tags":[],"country":"VE","link":"https://www.paraglidingearth.com/pgearth/index.php?site=13478"},{"id":"pe13506","name":"Caripe","lat":10.1852,"lon":-63.5165,"alt":1156,"dirs":[],"dirsGood":[],"tags":[],"country":"VE","link":"https://www.paraglidingearth.com/pgearth/index.php?site=13506"},{"id":"pe13514","name":"The Abyss","lat":4.43803,"lon":-61.5996,"alt":1039,"dirs":["SE","S"],"dirsGood":["SE"],"tags":[],"country":"VE","link":"https://www.paraglidingearth.com/pgearth/index.php?site=13514"},{"id":"pe13528","name":"playa colorada","lat":10.2478,"lon":-64.4342,"alt":389,"dirs":[],"dirsGood":[],"tags":[],"country":"VE","link":"https://www.paraglidingearth.com/pgearth/index.php?site=13528"},{"id":"pe13587","name":"Oripoto","lat":10.4081,"lon":-66.8445,"alt":1235,"dirs":[],"dirsGood":[],"tags":[],"country":"VE","link":"https://www.paraglidingearth.com/pgearth/index.php?site=13587"},{"id":"pe14652","name":"Los Caballos","lat":10.083,"lon":-63.7416,"alt":1258,"dirs":["N","NE","E","SE","S","NW"],"dirsGood":["E","SE","S"],"tags":["xc","thermals","soaring","flatland"],"country":"VE","link":"https://www.paraglidingearth.com/pgearth/index.php?site=14652"},{"id":"pe15195","name":"Parque Caiza","lat":10.4676,"lon":-66.753,"alt":1127,"dirs":["N","NE","E","SE"],"dirsGood":["NE","E"],"tags":["thermals","soaring"],"country":"VE","link":"https://www.paraglidingearth.com/pgearth/index.php?site=15195"},{"id":"pe15635","name":"Tierra Negra","lat":8.4369,"lon":-71.3243,"alt":2034,"dirs":["N","NE","E","W","NW"],"dirsGood":["N","NE","NW"],"tags":["xc","thermals","soaring"],"country":"VE","link":"https://www.paraglidingearth.com/pgearth/index.php?site=15635"},{"id":"pe15686","name":"Lomalisa","lat":10.0475,"lon":-67.9124,"alt":570,"dirs":[],"dirsGood":[],"tags":[],"country":"VE","link":"https://www.paraglidingearth.com/pgearth/index.php?site=15686"},{"id":"pe16278","name":"punta de mata","lat":9.71898,"lon":-63.6179,"alt":257,"dirs":[],"dirsGood":[],"tags":[],"country":"VE","link":"https://www.paraglidingearth.com/pgearth/index.php?site=16278"},{"id":"pe16384","name":"Guatire El Ingenio","lat":10.5122,"lon":-66.5527,"alt":837,"dirs":[],"dirsGood":[],"tags":[],"country":"VE","link":"https://www.paraglidingearth.com/pgearth/index.php?site=16384"},{"id":"pe16652","name":"Tierra Negra","lat":8.48037,"lon":-71.3135,"alt":1597,"dirs":[],"dirsGood":[],"tags":[],"country":"VE","link":"https://www.paraglidingearth.com/pgearth/index.php?site=16652"},{"id":"pe17129","name":"Manzanillo","lat":11.0073,"lon":-63.9047,"alt":838,"dirs":[],"dirsGood":[],"tags":[],"country":"VE","link":"https://www.paraglidingearth.com/pgearth/index.php?site=17129"},{"id":"pe17301","name":"Los Caballos","lat":10.1162,"lon":-63.7174,"alt":450,"dirs":[],"dirsGood":[],"tags":[],"country":"VE","link":"https://www.paraglidingearth.com/pgearth/index.php?site=17301"},{"id":"pe17302","name":"San Fernando","lat":10.2999,"lon":-63.9189,"alt":605,"dirs":[],"dirsGood":[],"tags":[],"country":"VE","link":"https://www.paraglidingearth.com/pgearth/index.php?site=17302"},{"id":"pe17304","name":"La Cascada","lat":9.70153,"lon":-63.1513,"alt":55,"dirs":[],"dirsGood":[],"tags":[],"country":"VE","link":"https://www.paraglidingearth.com/pgearth/index.php?site=17304"},{"id":"pe17305","name":"Laguna","lat":9.68892,"lon":-63.2468,"alt":92,"dirs":[],"dirsGood":[],"tags":[],"country":"VE","link":"https://www.paraglidingearth.com/pgearth/index.php?site=17305"},{"id":"pe17427","name":"Pirulo","lat":10.5997,"lon":-66.8412,"alt":436,"dirs":["N","NE","E","SE","W","NW"],"dirsGood":["N","NE","E","SE","W","NW"],"tags":["thermals","soaring"],"country":"VE","link":"https://www.paraglidingearth.com/pgearth/index.php?site=17427"},{"id":"pe17651","name":"Los caballos","lat":10.0838,"lon":-63.7415,"alt":1242,"dirs":["N","S"],"dirsGood":["S"],"tags":["xc","thermals","soaring"],"country":"VE","link":"https://www.paraglidingearth.com/pgearth/index.php?site=17651"},{"id":"pe17718","name":"JunkiFly Zamurito","lat":10.4725,"lon":-67.0343,"alt":1596,"dirs":["E","SE","S","SW","W"],"dirsGood":["E","SE","S","SW","W"],"tags":["xc","thermals","soaring"],"country":"VE","link":"https://www.paraglidingearth.com/pgearth/index.php?site=17718"},{"id":"pe19376","name":"Jabon","lat":9.81255,"lon":-70.1203,"alt":1543,"dirs":["N","NE","E"],"dirsGood":["NE","E"],"tags":["xc","thermals","soaring","flatland"],"country":"VE","link":"https://www.paraglidingearth.com/pgearth/index.php?site=19376"},{"id":"pe19699","name":"Cerro el Toro","lat":8.0048,"lon":-62.3588,"alt":669,"dirs":["NE","E","SE","S"],"dirsGood":["E","SE"],"tags":["xc","thermals","soaring","flatland","winch"],"country":"VE","link":"https://www.paraglidingearth.com/pgearth/index.php?site=19699"},{"id":"pe19700","name":"Cerro de Jorge","lat":7.9075,"lon":-62.4619,"alt":476,"dirs":["NE","E","SE"],"dirsGood":["NE","E","SE"],"tags":["thermals","soaring","flatland"],"country":"VE","link":"https://www.paraglidingearth.com/pgearth/index.php?site=19700"},{"id":"pe19701","name":"El Rey","lat":7.4681,"lon":-63.2199,"alt":511,"dirs":["N","NE","E"],"dirsGood":["N","NE","E"],"tags":["thermals","soaring","flatland"],"country":"VE","link":"https://www.paraglidingearth.com/pgearth/index.php?site=19701"},{"id":"pe21241","name":"Nirgua","lat":10.1236,"lon":-68.5454,"alt":1162,"dirs":["N","NE","E","SE"],"dirsGood":["N","NE","E","SE"],"tags":["xc","thermals","soaring"],"country":"VE","link":"https://www.paraglidingearth.com/pgearth/index.php?site=21241"}]